     2.11           OBSERVATION DATA    M                   RINEX VERSION / TYPE
Spider v7.5.1.8670  SMO                 2021 10 14 13:09    PGM / RUN BY / DATE 
HKSC                                                        MARKER NAME         
23014M001                                                   MARKER NUMBER       
SMO                 Lands Department HKSAR                  OBSERVER / AGENCY   
1870254             LEICA GR50          4.50/7.710          REC # / TYPE / VERS 
725196              LEIAR25.R4      LEIT                    ANT # / TYPE        
 -2414266.9197  5386768.9868  2407460.0314                  APPROX POSITION XYZ 
        0.0083        0.0000        0.0000                  ANTENNA: DELTA H/E/N
     1     1                                                WAVELENGTH FACT L1/2
     6    C1    L1    P2    L2    C5    L5                  # / TYPES OF OBSERV 
     5.000                                                  INTERVAL            
  2021    10    14    12    00    0.0000000     GPS         TIME OF FIRST OBS   
  2021    10    14    12    59   55.0000000     GPS         TIME OF LAST OBS    
    18                                                      LEAP SECONDS        
    22                                                      # OF SATELLITES     
   G 3   720   720   720   720   720   720                  PRN / # OF OBS      
   G 4   720   720   720   720   720   720                  PRN / # OF OBS      
   G 8   696   695   695   695   696   696                  PRN / # OF OBS      
   G 9   129   128   128   128   129   129                  PRN / # OF OBS      
   G16   720   720   720   720     0     0                  PRN / # OF OBS      
   G18    91    76    77    71    97    97                  PRN / # OF OBS      
   G22   720   720   720   720     0     0                  PRN / # OF OBS      
   G26   720   720   720   720   720   720                  PRN / # OF OBS      
   G27   720   720   720   720   720   720                  PRN / # OF OBS      
   G29   284   279   280   279     0     0                  PRN / # OF OBS      
   G31   720   720   720   720     0     0                  PRN / # OF OBS      
   G32   720   720   720   720   719   719                  PRN / # OF OBS      
   R 2   349   345   331   312     0     0                  PRN / # OF OBS      
   R 3   720   720   720   720     0     0                  PRN / # OF OBS      
   R 4   720   720   720   720     0     0                  PRN / # OF OBS      
   R 5   651   651   648   648     0     0                  PRN / # OF OBS      
   R13   720   713   720   714     0     0                  PRN / # OF OBS      
   R14   720   720   720   720     0     0                  PRN / # OF OBS      
   R15   720   720   720   720     0     0                  PRN / # OF OBS      
   R17   470   453   455   397     0     0                  PRN / # OF OBS      
   R23   720   720     0     0     0     0                  PRN / # OF OBS      
   R24   720   720   720   720     0     0                  PRN / # OF OBS      
BIT 2 OF LLI FLAGS DATA COLLECTED UNDER A/S CONDITION       COMMENT             
SNR is mapped to RINEX snr flag value [1-9]                 COMMENT             
LX:    >= 25dBHz -> 1; 26-27dBHz -> 2; 28-31dBHz -> 3       COMMENT             
       32-35dBHz -> 4; 36-38dBHz -> 5; 39-41dBHz -> 6       COMMENT             
       42-44dBHz -> 7; 45-48dBHz -> 8; >= 49dBHz -> 9       COMMENT             
                                                            END OF HEADER       
 21 10 14 12 00  0.0000000  0 17G03G04G16G22G26G27G29G31G32R02R03R04
                                R13R14R15R23R24
  23147534.060   121641108.10708  23147535.700    94785287.99448  23147535.880  
  90835937.88608
  24062639.280   126450039.00607  24062639.660    98532508.40845  24062642.500  
  94426996.77807
  20647310.320   108502487.16809  20647308.740    84547415.97848                
                
  23274312.100   122307362.05108  23274309.460    95304446.35847                
                
  20525760.540   107863790.98209  20525762.280    84049759.71449  20525761.000  
  80547685.51309
  23017388.720   120957225.64208  23017393.640    94252419.49848  23017393.720  
  90325223.95508
  24731051.260   129962761.43807  24731050.140   101269783.80345                
                
  21991379.560   115565657.02409  21991377.820    90051227.70748                
                
  22452744.640   117990119.20009  22452747.880    91940438.00549  22452747.500  
  88109563.82608
  22576576.580   120472920.08908  22576583.640    93701166.22206                
                
  19550932.360   104657705.31809  19550932.940    81400477.01808                
                
  20552689.600   110058748.29709  20552689.700    85601261.02008                
                
  22133570.440   118192027.08505  22133571.820    91927138.01305                
                
  20841410.860   111096615.07009  20841413.180    86408524.74808                
                
  23052530.300   123185825.73608  23052534.060    95811264.37306                
                
  22804925.660   121991080.49108                                                
                
  22986993.220   122921777.30508  22987000.320    95605882.80806                
                
 21 10 14 12 00  5.0000000  0 17G03G04G16G22G26G27G29G31G32R02R03R04
                                R13R14R15R23R24
  23147774.900   121642373.80408  23147776.600    94786274.29648  23147776.700  
  90836883.04108
  24059450.320   126433281.10807  24059450.720    98519450.36346  24059453.560  
  94414482.78207
  20646336.080   108497367.71309  20646334.580    84543426.84948                
                
  23275361.480   122312876.48308  23275358.860    95308743.35146                
                
  20527068.760   107870665.94309  20527070.540    84055116.87549  20527069.260  
  80552819.41609
  23013990.980   120939370.43208  23013995.900    94238506.43248  23013995.940  
  90311890.54808
  24733289.600   129974524.02807  24733288.500   101278949.50145                
                
  21992193.000   115569931.76409  21992191.320    90054558.72547                
                
  22455432.940   118004246.29409  22455436.200    91951446.16449  22455435.820  
  88120113.25508
  22580631.880   120494559.78408  22580638.900    93717997.11906                
                
  19552634.520   104666817.16409  19552635.100    81407564.05008                
                
  20550625.480   110047695.11109  20550625.620    85592664.15608                
                
  22135510.800   118202388.91805  22135512.240    91935197.25005                
                
  20841755.240   111098450.69709  20841757.560    86409952.50207                
                
  23051185.560   123178640.01108  23051189.280    95805675.57205                
                
  22803548.360   121983712.87308                                                
                
  22984271.880   122907225.38708  22984279.020    95594564.75205                
                
 21 10 14 12 00 10.0000000  0 17G03G04G16G22G26G27G29G31G32R02R03R04
                                R13R14R15R23R24
  23148018.300   121643652.99007  23148020.040    94787271.03547  23148020.120  
  90837838.25908
  24056261.800   126416525.27007  24056262.200    98506393.84146  24056265.000  
  94401970.29407
  20645364.540   108492262.22208  20645363.020    84539448.52348                
                
  23276412.520   122318399.69108  23276409.920    95313047.12147                
                
  20528378.660   107877549.67409  20528380.460    84060480.80549  20528379.180  
  80557959.86309
  23010593.840   120921518.38808  23010598.740    94224595.77148  23010598.760  
  90298559.52408
  24735530.060   129986297.84807  24735528.940   101288123.88446                
                
  21993006.800   115574208.23608  21993005.100    90057891.01648                
                
  22458123.100   118018383.01909  22458126.340    91962461.75649  22458125.980  
  88130669.87408
  22584688.040   120516204.09008  22584695.000    93734831.53707                
                
  19554340.500   104675949.58309  19554341.100    81414667.02308                
                
  20548564.900   110036660.90809  20548565.080    85584081.98208                
                
  22137450.780   118212748.36505  22137452.220    91943254.58805                
                
  20842100.360   111100290.42609  20842102.700    86411383.38608                
                
  23049841.960   123171460.69008  23049845.680    95800091.67206                
                
  22802173.760   121976359.56408                                                
                
  22981551.100   122892676.36208  22981558.180    95583248.87506                
                
 21 10 14 12 00 15.0000000  0 17G03G04G16G22G26G27G29G31G32R02R03R04
                                R13R14R15R23R24
  23148264.400   121644946.19307  23148266.140    94788278.72347  23148266.220  
  90838803.96108
  24053073.720   126399771.94307  24053074.120    98493339.30746  24053076.940  
  94389459.70307
  20644395.740   108487171.16808  20644394.200    84535481.47548                
                
  23277465.320   122323932.19708  23277462.740    95317358.15547                
                
  20529690.320   107884442.67808  20529692.160    84065851.98148  20529690.860  
  80563107.23809
  23007197.400   120903670.05508  23007202.300    94210688.01148  23007202.360  
  90285231.26308
  24737772.760   129998083.37706  24737771.680   101297307.42146                
                
  21993821.020   115578486.97508  21993819.320    90061225.09648                
                
  22460815.160   118032529.86108  22460818.420    91973485.25548  22460818.060  
  88141234.05008
  22588745.120   120537853.29108  22588752.060    93751669.78607                
                
  19556050.480   104685103.19109  19556051.080    81421786.49708                
                
  20546507.980   110025646.26209  20546508.180    85575515.04108                
                
  22139390.420   118223105.83305  22139391.840    91951310.40705                
                
  20842446.360   111102134.76309  20842448.720    86412817.87808                
                
  23048499.680   123164288.25508  23048503.440    95794513.16106                
                
  22800801.900   121969020.95808                                                
                
  22978830.920   122878130.73608  22978837.980    95571935.66806                
                
 21 10 14 12 00 20.0000000  0 17G03G04G16G22G26G27G29G31G32R02R03R04
                                R13R14R15R23R24
  23148512.820   121646251.92007  23148514.620    94789296.17848  23148514.700  
  90839779.01908
  24049885.840   126383019.65507  24049886.260    98480285.57346  24049889.060  
  94376949.88907
  20643429.400   108482093.10308  20643427.860    84531524.54848                
                
  23278519.620   122329472.47608  23278517.060    95321675.22847                
                
  20531003.460   107891343.43608  20531005.300    84071229.19148  20531004.020  
  80568260.40309
  23003801.380   120885823.94408  23003806.280    94196781.97548  23003806.360  
  90271904.64808
  24740017.420   130009879.12407  24740016.460   101306498.89546                
                
  21994635.380   115582766.44009  21994633.660    90064559.74248                
                
  22463508.880   118046685.32409  22463512.120    91984515.45949  22463511.780  
  88151804.66208
  22592802.960   120559506.30508  22592809.880    93768510.99106                
                
  19557764.080   104694276.39509  19557764.700    81428921.19808                
                
  20544454.480   110014649.64809  20544454.640    85566962.10708                
                
  22141329.400   118233459.96305  22141330.840    91959363.60905                
                
  20842792.920   111103982.20109  20842795.300    86414254.76208                
                
  23047158.460   123157121.13908  23047162.180    95788938.75006                
                
  22799432.520   121961695.57008                                                
                
  22976111.140   122863587.14908  22976118.200    95560624.02506                
                
 21 10 14 12 00 25.0000000  0 17G03G04G16G22G26G27G29G31G32R02R03R04
                                R13R14R15R23R24
  23148763.800   121647570.75007  23148765.600    94790323.81547  23148765.680  
  90840763.86508
  24046698.300   126366269.08007  24046698.740    98467233.14246  24046701.500  
  94364441.33607
  20642465.640   108477028.63408  20642464.100    84527578.18848                
                
  23279575.520   122335021.08408  23279572.940    95325998.78647                
                
  20532318.200   107898252.54308  20532320.040    84076612.89048  20532318.760  
  80573419.80609
  23000405.900   120867980.67008  23000410.780    94182878.14048  23000410.880  
  90258580.17408
  24742264.160   130021685.65107  24742263.220   101315698.77046                
                
  21995450.000   115587047.35208  21995448.280    90067895.49748                
                
  22466204.360   118060849.99609  22466207.560    91995552.82349  22466207.260  
  88162382.16408
  22596861.500   120581163.46908  22596868.460    93785355.39906                
                
  19559481.460   104703469.73409  19559482.100    81436071.55008                
                
  20542404.460   110003671.66809  20542404.600    85558423.65208                
                
  22143267.900   118243811.31405  22143269.320    91967414.63305                
                
  20843140.200   111105833.44909  20843142.600    86415694.60308                
                
  23045818.320   123149960.02708  23045822.080    95783369.00406                
                
  22798065.740   121954384.18908                                                
                
  22973391.880   122849046.15108  22973398.880    95549314.37206                
                
 21 10 14 12 00 30.0000000  0 17G03G04G16G22G26G27G29G31G32R02R03R04
                                R13R14R15R23R24
  23149017.080   121648901.80607  23149018.960    94791361.00647  23149018.980  
  90841757.83208
  24043510.940   126349519.28207  24043511.360    98454181.36846  24043514.100  
  94351933.35507
  20641504.300   108471976.80308  20641502.780    84523641.71648                
                
  23280632.820   122340577.16008  23280630.240    95330328.19447                
                
  20533634.340   107905169.10308  20533636.220    84082002.43248  20533634.900  
  80578584.77109
  22997010.780   120850139.35508  22997015.640    94168975.86548  22997015.740  
  90245257.14908
  24744512.760   130033502.08207  24744511.800   101324906.39346                
                
  21996264.720   115591328.70508  21996263.000    90071231.63148                
                
  22468901.400   118075023.00609  22468904.640    92006596.72449  22468904.340  
  88172965.88108
  22600920.500   120602823.20408  22600927.520    93802201.83507                
                
  19561202.400   104712682.29109  19561203.100    81443236.88208                
                
  20540357.740   109992711.45209  20540357.860    85549899.05908                
                
  22145205.700   118254159.03705  22145207.040    91975462.87605                
                
  20843487.980   111107687.47709  20843490.420    86417136.63908                
                
  23044479.120   123142803.99408  23044482.980    95777803.23606                
                
  22796701.360   121947085.73208                                                
                
  22970672.900   122834506.82708  22970679.900    95538006.07506                
                
 21 10 14 12 00 35.0000000  0 17G03G04G16G22G26G27G29G31G32R02R03R04
                                R13R14R15R23R24
  23149273.120   121650247.41007  23149275.080    94792409.52747  23149275.080  
  90842762.67408
  24040324.120   126332772.61907  24040324.560    98441132.02146  24040327.300  
  94339427.75207
  20640545.820   108466940.04308  20640544.300    84519716.97748                
                
  23281691.980   122346142.99608  23281689.400    95334665.20147                
                
  20534952.320   107912095.45508  20534954.240    84087399.59149  20534952.920  
  80583757.04909
  22993616.480   120832302.37208  22993621.340    94155076.95248  22993621.440  
  90231937.37008
  24746763.660   130045330.75907  24746762.740   101334123.55146                
                
  21997079.980   115595612.90708  21997078.220    90074569.96648                
                
  22471600.480   118089206.67209  22471603.720    92017648.91449  22471603.420  
  88183557.55608
  22604980.680   120624488.94708  22604987.720    93819052.94607                
                
  19562927.420   104721916.55209  19562928.140    81450419.07908                
                
  20538314.780   109981771.41909  20538314.880    85541390.14408                
                
  22147143.220   118264505.42705  22147144.520    91983510.07905                
                
  20843836.740   111109546.70309  20843839.200    86418582.70408                
                
  23043141.400   123135655.40008  23043145.280    95772243.25006                
                
  22795339.900   121939802.74808                                                
                
  22967954.760   122819971.77508  22967961.700    95526701.07406                
                
 21 10 14 12 00 40.0000000  0 17G03G04G16G22G26G27G29G31G32R02R03R04
                                R13R14R15R23R24
  23149531.620   121651605.78907  23149533.660    94793468.02448  23149533.600  
  90843777.02508
  24037137.580   126316027.30707  24037138.020    98428083.75046  24037140.740  
  94326923.14907
  20639589.860   108461916.42908  20639588.340    84515802.49348                
                
  23282752.680   122351716.83108  23282750.060    95339008.44947                
                
  20536271.840   107919029.77108  20536273.780    84092802.97948  20536272.460  
  80588935.27809
  22990222.680   120814467.92708  22990227.560    94141180.03348  22990227.660  
  90218619.47108
  24749016.560   130057169.88107  24749015.660   101343348.84346                
                
  21997895.440   115599898.10208  21997893.640    90077909.09748                
                
  22474301.240   118103399.17809  22474304.480    92028708.00549  22474304.180  
  88194155.83608
  22609041.580   120646158.30108  22609048.640    93835906.89407                
                
  19564656.160   104731170.69109  19564656.880    81457616.76408                
                
  20536275.200   109970849.74009  20536275.340    85532895.54308                
                
  22149080.180   118274848.71705  22149081.420    91991554.89405                
                
  20844186.160   111111409.29209  20844188.620    86420031.42008                
                
  23041804.640   123128512.30408  23041808.620    95766687.56706                
                
  22793981.000   121932533.37308                                                
                
  22965237.020   122805438.93408  22965243.940    95515397.84106                
                
 21 10 14 12 00 45.0000000  0 17G03G04G16G22G26G27G29G31G32R02R03R04
                                R13R14R15R23R24
  23149792.620   121652977.34108  23149794.700    94794536.70648  23149794.660  
  90844801.24308
  24033951.380   126299283.81507  24033951.800    98415036.82446  24033954.560  
  94314419.89607
  20638636.500   108456906.49908  20638634.960    84511898.60248                
                
  23283814.960   122357299.12408  23283812.360    95343358.23047                
                
  20537592.980   107925972.51408  20537594.880    84098212.85148  20537593.600  
  80594119.79209
  22986829.440   120796636.48008  22986834.300    94127285.37948  22986834.440  
  90205303.83608
  24751271.520   130069019.90007  24751270.680   101352582.56446                
                
  21998711.160   115604184.75808  21998709.360    90081249.29148                
                
  22477003.760   118117600.97409  22477007.000    92039774.27849  22477006.720  
  88204761.05408
  22613103.200   120667831.78208  22613110.320    93852763.96107                
                
  19566388.640   104740445.00409  19566389.380    81464830.05608                
                
  20534239.160   109959946.81909  20534239.280    85524415.43508                
                
  22151016.660   118285189.36705  22151017.840    91999597.55905                
                
  20844536.300   111113275.76509  20844538.740    86421483.06008                
                
  23040469.060   123121375.30208  23040473.040    95761136.54106                
                
  22792624.680   121925277.96508                                                
                
  22962519.800   122790908.99408  22962526.620    95504096.76606                
                
 21 10 14 12 00 50.0000000  0 17G03G04G16G22G26G27G29G31G32R02R03R04
                                R13R14R15R23R24
  23150056.180   121654362.28908  23150058.300    94795615.91448  23150058.240  
  90845835.44208
  24030765.600   126282542.34907  24030765.980    98401991.56746  24030768.740  
  94301918.15007
  20637685.780   108451910.37109  20637684.220    84508005.55248                
                
  23284878.920   122362890.18508  23284876.340    95347714.91547                
                
  20538915.760   107932923.85608  20538917.660    84103629.50848  20538916.380  
  80599310.72909
  22983436.800   120778808.24208  22983441.660    94113393.30748  22983441.800  
  90191990.57208
  24753528.620   130080880.96107  24753527.740   101361824.96446                
                
  21999527.180   115608473.06909  21999525.380    90084590.85948                
                
  22479708.060   118131812.25309  22479711.320    92050848.00849  22479711.060  
  88215373.34708
  22617165.620   120689509.55608  22617172.820    93869624.43907                
                
  19568125.000   104749739.82409  19568125.740    81472059.37708                
                
  20532206.680   109949062.93009  20532206.780    85515950.21108                
                
  22152952.620   118295527.45105  22152953.800    92007638.31805                
                
  20844887.180   111115146.15809  20844889.620    86422937.84408                
                
  23039134.660   123114244.54208  23039138.600    95755590.44606                
                
  22791271.000   121918036.81808                                                
                
  22959803.140   122776381.88808  22959809.840    95492797.97506                
                
 21 10 14 12 00 55.0000000  0 17G03G04G16G22G26G27G29G31G32R02R03R04
                                R13R14R15R23R24
  23150322.240   121655760.23708  23150324.340    94796705.21348  23150324.320  
  90846879.36408
  24027580.120   126265802.56007  24027580.420    98388947.57746  24027583.240  
  94289417.65607
  20636737.620   108446927.73809  20636736.040    84504122.98548                
                
  23285944.420   122368489.47808  23285941.860    95352077.99247                
                
  20540240.100   107939883.42008  20540242.000    84109052.54948  20540240.720  
  80604507.80809
  22980044.740   120760982.88308  22980049.560    94099503.45148  22980049.700  
  90178679.46508
  24755787.740   130092752.69107  24755786.820   101371075.68546                
                
  22000343.460   115612762.68908  22000341.660    90087933.42248                
                
  22482414.120   118146032.62609  22482417.380    92061928.80249  22482417.120  
  88225992.44508
  22621228.820   120711191.31408  22621236.040    93886488.00607                
                
  19569865.060   104759054.53309  19569865.820    81479304.15508                
                
  20530177.700   109938197.63609  20530177.760    85507499.42908                
                
  22154888.120   118305862.65405  22154889.140    92015676.81605                
                
  20845238.720   111117020.09309  20845241.160    86424395.35508                
                
  23037801.320   123107119.70108  23037805.240    95750048.93106                
                
  22789919.920   121910809.60908                                                
                
  22957086.940   122761857.60908  22957093.600    95481501.37306                
                
 21 10 14 12 01  0.0000000  0 17G03G04G16G22G26G27G29G31G32R02R03R04
                                R13R14R15R23R24
  23150590.760   121657171.25008  23150592.860    94797804.68248  23150592.840  
  90847933.03108
  24024394.940   126249064.47107  24024395.260    98375904.90446  24024398.060  
  94276918.46107
  20635792.020   108441958.64509  20635790.440    84500250.95248                
                
  23287011.500   122374097.00808  23287009.020    95356447.46647                
                
  20541566.020   107946851.24509  20541567.920    84114482.00349  20541566.620  
  80609711.05409
  22976653.260   120743160.43308  22976658.020    94085615.84048  22976658.200  
  90165370.53708
  24758048.880   130104635.14307  24758047.980   101380334.71846                
                
  22001160.000   115617053.65409  22001158.180    90091277.01748                
                
  22485121.920   118160262.14809  22485125.180    92073016.70449  22485124.940  
  88236618.36608
  22625292.760   120732877.26108  22625300.040    93903354.82007                
                
  19571608.880   104768389.47509  19571609.660    81486564.64608                
                
  20528152.260   109927351.16509  20528152.260    85499063.25708                
                
  22156823.020   118316194.96005  22156823.980    92023713.03705                
                
  20845590.940   111118897.74909  20845593.380    86425855.73408                
                
  23036469.020   123100000.72908  23036473.000    95744511.97006                
                
  22788571.460   121903596.49008                                                
                
  22954371.300   122747335.89908  22954377.860    95470206.73106                
                
 21 10 14 12 01  5.0000000  0 17G03G04G16G22G26G27G29G31G32R02R03R04
                                R13R14R15R23R24
  23150861.960   121658596.13808  23150863.980    94798915.00648  23150863.980  
  90848997.05408
  24021210.260   126232328.96707  24021210.560    98362864.29546  24021213.360  
  94264421.16907
  20634849.160   108437003.93709  20634847.600    84496390.18248                
                
  23288080.300   122379713.61908  23288077.880    95360824.06847                
                
  20542893.660   107953828.15409  20542895.560    84119918.59249  20542894.260  
  80614921.07909
  22973262.420   120725341.75608  22973267.220    94071731.23248  22973267.420  
  90152064.41808
  24760312.200   130116529.04607  24760311.320   101389602.73946                
                
  22001976.940   115621346.84509  22001975.140    90094622.38948                
                
  22487831.620   118174501.64209  22487834.880    92084112.43449  22487834.660  
  88247251.73008
  22629357.540   120754567.61208  22629364.880    93920225.10406                
                
  19573356.620   104777745.26109  19573357.400    81493841.39808                
                
  20526130.460   109916524.26109  20526130.420    85490642.36708                
                
  22158757.580   118326525.37605  22158758.520    92031747.85105                
                
  20845944.020   111120779.85409  20845946.460    86427319.63207                
                
  23035138.020   123092888.57308  23035142.040    95738980.36606                
                
  22787225.760   121896398.17008                                                
                
  22951656.340   122732817.83808  22951662.840    95458914.97606                
                
 21 10 14 12 01 10.0000000  0 17G03G04G16G22G26G27G29G31G32R02R03R04
                                R13R14R15R23R24
  23151135.700   121660034.52008  23151137.680    94800035.81748  23151137.660  
  90850071.17108
  24018025.980   126215595.68307  24018026.300    98349825.37746  24018029.080  
  94251925.53407
  20633909.000   108432063.22709  20633907.400    84492540.28648                
                
  23289150.740   122385338.88408  23289148.360    95365207.38047                
                
  20544222.980   107960813.77009  20544224.880    84125361.92449  20544223.560  
  80620137.60809
  22969872.280   120707526.50708  22969877.040    94057849.25048  22969877.300  
  90138760.86208
  24762577.680   130128434.17407  24762576.800   101398879.45246                
                
  22002794.260   115625641.87209  22002792.440    90097969.16548                
                
  22490543.160   118188750.73909  22490546.400    92095215.60249  22490546.220  
  88257892.26008
  22633423.180   120776262.62508  22633430.580    93937098.97407                
                
  19575108.200   104787121.62209  19575109.000    81501134.12108                
                
  20524112.260   109905716.52709  20524112.140    85482236.35008                
                
  22160691.640   118336853.46905  22160692.640    92039780.81405                
                
  20846297.860   111122666.08109  20846300.280    86428786.69408                
                
  23033808.180   123085782.73908  23033812.220    95733453.63106                
                
  22785882.800   121889214.40808                                                
                
  22948941.980   122718303.12308  22948948.460    95447625.81106                
                
 21 10 14 12 01 15.0000000  0 17G03G04G16G22G26G27G29G31G32R02R03R04
                                R13R14R15R23R24
  23151411.760   121661485.16908  23151413.680    94801166.15948  23151413.680  
  90851154.44308
  24014841.900   126198863.38807  24014842.220    98336787.18346  24014844.980  
  94239430.63907
  20632971.240   108427135.28609  20632969.640    84488700.30148                
                
  23290222.580   122390971.59408  23290220.260    95369596.46347                
                
  20545553.700   107967806.84008  20545555.600    84130811.04348  20545554.300  
  80625359.72009
  22966482.540   120689713.46908  22966487.280    94043968.95848  22966487.580  
  90125458.94808
  24764845.080   130140349.18707  24764844.100   101408163.85746                
                
  22003611.660   115629937.45608  22003609.840    90101316.35148                
                
  22493256.260   118203008.18609  22493259.500    92106325.25449  22493259.340  
  88268539.02808
  22637489.360   120797960.54008  22637496.820    93953975.07807                
                
  19576863.320   104796517.22009  19576864.180    81508441.77308                
                
  20522097.400   109894926.80809  20522097.240    85473844.32108                
                
  22162625.080   118347178.01905  22162626.060    92047810.99205                
                
  20846652.220   111124555.11809  20846654.640    86430255.91808                
                
  23032479.320   123078681.99408  23032483.340    95727930.81706                
                
  22784542.320   121882043.89108                                                
                
  22946227.980   122703790.32408  22946234.400    95436338.09606                
                
 21 10 14 12 01 20.0000000  0 17G03G04G16G22G26G27G29G31G32R02R03R04
                                R13R14R15R23R24
  23151690.500   121662949.86908  23151692.420    94802307.50748  23151692.340  
  90852248.19208
  24011658.380   126182133.89307  24011658.720    98323751.25846  24011661.420  
  94226937.82907
  20632036.260   108422221.89309  20632034.680    84484871.72748                
                
  23291296.220   122396613.52108  23291293.920    95373992.78646                
                
  20546886.200   107974809.16109  20546888.100    84136267.42749  20546886.800  
  80630588.72009
  22963093.540   120671904.39308  22963098.300    94030091.82548  22963098.600  
  90112160.01908
  24767114.700   130152275.92807  24767113.660   101417457.45145                
                
  22004429.500   115634235.41108  22004427.700    90104665.43747                
                
  22495971.320   118217275.74409  22495974.540    92117442.84649  22495974.400  
  88279193.35708
  22641556.420   120819663.01108  22641563.940    93970854.79607                
                
  19578622.420   104805933.96909  19578623.320    81515765.93608                
                
  20520086.240   109884156.94509  20520086.040    85465467.78808                
                
  22164558.140   118357500.70005  22164559.180    92055839.77305                
                
  20847007.440   111126448.78709  20847009.880    86431728.79608                
                
  23031151.740   123071588.14308  23031155.780    95722413.43406                
                
  22783204.680   121874888.43008                                                
                
  22943514.680   122689281.30108  22943521.020    95425053.37306                
                
 21 10 14 12 01 25.0000000  0 17G03G04G16G22G26G27G29G31G32R02R03R04
                                R13R14R15R23R24
  23151971.780   121664428.06308  23151973.680    94803459.33148  23151973.580  
  90853352.03008
  24008475.340   126165406.65507  24008475.580    98310717.03146  24008478.300  
  94214446.71207
  20631103.920   108417322.50009  20631102.360    84481054.01448                
                
  23292371.500   122402264.14008  23292369.180    95378395.85647                
                
  20548220.360   107981820.18809  20548222.240    84141730.56049  20548220.940  
  80635824.21809
  22959705.220   120654098.84808  22959710.000    94016217.40248  22959710.280  
  90098863.68808
  24769386.440   130164213.81907  24769385.320   101426759.69945                
                
  22005247.720   115638535.20708  22005245.940    90108015.92648                
                
  22498688.180   118231552.89209  22498691.400    92128567.87249  22498691.300  
  88289854.83808
  22645624.420   120841370.63508  22645632.000    93987738.46907                
                
  19580385.340   104815371.21109  19580386.280    81523106.00708                
                
  20518078.660   109873406.30809  20518078.440    85457106.17608                
                
  22166490.780   118367820.91305  22166491.820    92063866.61005                
                
  20847363.420   111128346.59009  20847365.880    86433204.86508                
                
  23029825.420   123064500.77708  23029829.420    95716901.05406                
                
  22781869.760   121867747.54808                                                
                
  22940802.040   122674775.62308  22940808.340    95413771.21606                
                
 21 10 14 12 01 30.0000000  0 17G03G04G16G22G26G27G29G31G32R02R03R04
                                R13R14R15R23R24
  23152255.440   121665918.66408  23152257.280    94804620.80148  23152257.160  
  90854465.14408
  24005292.480   126148680.61007  24005292.720    98297683.71646  24005295.400  
  94201956.47807
  20630174.060   108412436.03409  20630172.500    84477246.34348                
                
  23293448.240   122407922.35708  23293445.880    95382804.80547                
                
  20549555.960   107988838.78709  20549557.820    84147199.56649  20549556.540  
  80641065.38709
  22956317.380   120636295.70808  22956322.120    94002344.80848  22956322.420  
  90085569.16308
  24771660.060   130176161.80707  24771658.760   101436069.79945                
                
  22006066.080   115642835.77009  22006064.300    90111366.97748                
                
  22501406.660   118245838.52509  22501409.860    92139699.48949  22501409.800  
  88300522.66508
  22649692.900   120863080.84008  22649700.560    94004624.11707                
                
  19582151.900   104824827.82009  19582152.860    81530461.10408                
                
  20516074.480   109862673.88709  20516074.220    85448758.69508                
                
  22168422.860   118378137.61105  22168423.860    92071890.66005                
                
  20847719.960   111130247.30909  20847722.400    86434683.15808                
                
  23028500.080   123057418.53808  23028504.040    95711392.64006                
                
  22780537.360   121860620.05308                                                
                
  22938089.800   122660272.24608  22938096.040    95402490.82506                
                
 21 10 14 12 01 35.0000000  0 17G03G04G16G22G26G27G29G31G32R02R03R04
                                R13R14R15R23R24
  23152541.700   121667423.00708  23152543.500    94805793.03948  23152543.400  
  90855588.50708
  24002110.120   126131957.10907  24002110.320    98284652.44746  24002113.000  
  94189468.14507
  20629246.920   108407563.86509  20629245.360    84473449.89348                
                
  23294526.680   122413589.49808  23294524.280    95387220.77947                
                
  20550893.260   107995866.29609  20550895.100    84152675.58649  20550893.840  
  80646313.20809
  22952930.220   120618496.28808  22952934.960    93988475.20448  22952935.300  
  90072277.43908
  24773935.900   130188121.19507  24773934.460   101445388.83045                
                
  22006884.840   115647138.44109  22006883.100    90114719.74548                
                
  22504127.000   118260133.96909  22504130.220    92150838.81249  22504130.160  
  88311197.81708
  22653762.360   120884796.00808  22653770.040    94021513.71307                
                
  19583922.320   104834305.10008  19583923.320    81537832.35208                
                
  20514073.960   109851961.01708  20514073.660    85440426.49208                
                
  22170354.460   118388452.27405  22170355.520    92079913.22005                
                
  20848077.320   111132152.37508  20848079.760    86436164.92008                
                
  23027175.980   123050342.90908  23027179.920    95705889.45206                
                
  22779207.760   121853507.53108                                                
                
  22935378.240   122645772.44208  22935384.440    95391213.29306                
                
 21 10 14 12 01 40.0000000  0 17G03G04G16G22G26G27G29G31G32R02R03R04
                                R13R14R15R23R24
  23152830.500   121668940.64608  23152832.240    94806975.59848  23152832.160  
  90856721.80508
  23998928.160   126115235.70207  23998928.320    98271622.78145  23998931.020  
  94176981.39007
  20628322.420   108402705.57209  20628320.860    84469664.19948                
                
  23295606.720   122419265.13608  23295604.280    95391643.33847                
                
  20552232.180   108002902.30809  20552234.020    84158158.18649  20552232.740  
  80651567.38109
  22949543.700   120600700.23608  22949548.420    93974608.18648  22949548.800  
  90058988.22508
  24776213.780   130200091.56207  24776212.320   101454716.40845                
                
  22007703.920   115651442.82409  22007702.200    90118073.79848                
                
  22506849.140   118274438.81609  22506852.360    92161985.42449  22506852.320  
  88321879.98308
  22657832.620   120906515.35908  22657840.300    94038406.52507                
                
  19585696.520   104843802.81009  19585697.560    81545219.44808                
                
  20512077.000   109841267.31109  20512076.700    85432109.15708                
                
  22172285.500   118398764.45905  22172286.680    92087933.80205                
                
  20848435.400   111134061.29509  20848437.860    86437649.62108                
                
  23025853.060   123043273.45408  23025856.940    95700391.01006                
                
  22777880.760   121846409.35508                                                
                
  22932667.320   122631275.90508  22932673.420    95379938.24206                
                
 21 10 14 12 01 45.0000000  0 17G03G04G16G22G26G27G29G31G32R02R03R04
                                R13R14R15R23R24
  23153121.780   121670471.28007  23153123.460    94808168.32747  23153123.420  
  90857864.81108
  23995746.520   126098516.14907  23995746.620    98258594.59245  23995749.380  
  94164496.02107
  20627400.520   108397860.80208  20627398.920    84465889.08148                
                
  23296688.320   122424948.98208  23296685.860    95396072.32646                
                
  20553572.640   108009946.51208  20553574.480    84163647.20348  20553573.220  
  80656827.66309
  22946157.780   120582907.26908  22946162.480    93960743.58348  22946162.880  
  90045701.30508
  24778493.720   130212072.59907  24778492.240   101464052.29345                
                
  22008523.260   115655748.57208  22008521.560    90121428.95048                
                
  22509573.000   118288752.73408  22509576.240    92173139.12849  22509576.180  
  88332568.93508
  22661903.520   120928238.20508  22661911.180    94055302.07806                
                
  19587474.480   104853320.46508  19587475.540    81552622.09108                
                
  20510083.540   109830592.49108  20510083.280    85423806.54208                
                
  22174216.120   118409073.87005  22174217.320    92095952.25605                
                
  20848794.140   111135973.82108  20848796.620    86439137.16607                
                
  23024531.180   123036209.84608  23024535.080    95694897.14206                
                
  22776556.440   121839325.33708                                                
                
  22929956.920   122616782.28508  22929962.940    95368665.48406                
                
 21 10 14 12 01 50.0000000  0 17G03G04G16G22G26G27G29G31G32R02R03R04
                                R13R14R15R23R24
  23153415.320   121672013.81707  23153416.940    94809370.27347  23153416.960  
  90859016.69908
  23992565.020   126081797.32507  23992565.100    98245566.91646  23992567.880  
  94152011.19707
  20626480.960   108393028.46309  20626479.360    84462123.61048                
                
  23297771.260   122430639.89708  23297768.800    95400506.77447                
                
  20554914.460   108016997.75809  20554916.280    84169141.66049  20554915.040  
  80662093.20009
  22942772.220   120565116.27608  22942776.900    93946880.48248  22942777.360  
  90032415.84408
  24780775.400   130224063.11307  24780773.920   101473395.52746                
                
  22009342.660   115660054.61608  22009340.980    90124784.28948                
                
  22512298.380   118303074.61909  22512301.620    92184298.99549  22512301.580  
  88343263.82408
  22665974.920   120949964.00508  22665982.620    94072199.88107                
                
  19589255.940   104862856.93409  19589257.040    81560039.32808                
                
  20508093.400   109819935.36309  20508093.140    85415517.65008                
                
  22176146.000   118419379.26805  22176147.220    92103967.54905                
                
  20849153.380   111137888.80109  20849155.860    86440626.57708                
                
  23023210.200   123029150.95908  23023214.100    95689406.90706                
                
  22775234.560   121832254.28808                                                
                
  22927246.820   122602290.38208  22927252.800    95357394.03306                
                
 21 10 14 12 01 55.0000000  0 17G03G04G16G22G26G27G29G31G32R02R03R04
                                R13R14R15R23R24
  23153711.420   121673569.85708  23153713.020    94810582.72448  23153713.100  
  90860178.67508
  23989384.000   126065080.90707  23989384.020    98232541.09745  23989386.860  
  94139528.14207
  20625564.060   108388210.14709  20625562.460    84458369.03948                
                
  23298855.860   122436339.50308  23298853.380    95404947.97047                
                
  20556257.920   108024057.68309  20556259.720    84174642.86149  20556258.500  
  80667365.23709
  22939387.360   120547328.87208  22939392.020    93933020.14848  22939392.520  
  90019133.08908
  24783059.220   130236064.80707  24783057.700   101482747.45546                
                
  22010162.440   115664362.56009  22010160.780    90128141.07948                
                
  22515025.580   118317406.09109  22515028.820    92195466.31749  22515028.800  
  88353965.86608
  22670047.120   120971693.98308  22670054.840    94089100.90707                
                
  19591041.240   104872413.80609  19591042.320    81567472.39508                
                
  20506106.840   109809297.71809  20506106.640    85407243.88708                
                
  22178075.380   118429682.30605  22178076.640    92111980.98105                
                
  20849513.360   111139807.84709  20849515.860    86442119.12608                
                
  23021890.400   123022098.42308  23021894.340    95683921.59906                
                
  22773915.460   121825198.03208                                                
                
  22924537.340   122587801.99708  22924543.300    95346125.29206                
                
 21 10 14 12 02  0.0000000  0 18G03G04G08G16G22G26G27G29G31G32R02R03
                                R04R13R14R15R23R24
  23154010.260   121675140.32108  23154011.900    94811806.51848  23154011.980  
  90861351.42108
  23986203.580   126048367.78507  23986203.640    98219517.94846  23986206.440  
  94127047.57907
  25167677.680                                                    25167685.480  
  98763385.04305
  20624650.040   108383406.78509  20624648.400    84454626.22048                
                
  23299942.300   122442048.71008  23299939.840    95409396.74047                
                
  20557603.200   108031127.20609  20557605.020    84180151.64649  20557603.780  
  80672644.42309
  22936003.400   120529546.06008  22936008.060    93919163.50648  22936008.540  
  90005853.75108
  24785345.380   130248078.55707  24785343.840   101492108.86846                
                
  22010982.760   115668673.40009  22010981.140    90131500.23448                
                
  22517754.760   118331748.06509  22517758.040    92206641.91849  22517758.020  
  88364675.75808
  22674120.300   120993429.02808  22674128.020    94106005.98507                
                
  19592830.580   104881992.25409  19592831.660    81574922.35308                
                
  20504124.100   109798680.43909  20504123.980    85398986.06608                
                
  22180004.560   118439983.84905  22180005.800    92119993.34005                
                
  20849874.280   111141731.84709  20849876.800    86443615.63208                
                
  23020571.980   123015053.26908  23020575.940    95678442.12606                
                
  22772599.300   121818157.44008                                                
                
  22921828.740   122573318.06908  22921834.700    95334860.12506                
                
 21 10 14 12 02  5.0000000  0 18G03G04G08G16G22G26G27G29G31G32R02R03
                                R04R13R14R15R23R24
  23154311.560   121676723.80508  23154313.260    94813040.38848  23154313.320  
  90862533.88308
  23983023.540   126031656.57007  23983023.600    98206496.21646  23983026.400  
  94114568.42307
  25164175.880   132238638.43915  25164183.460   103043111.37245  25164183.000  
  98749640.81805
  20623738.600   108378616.97809  20623736.940    84450893.90548                
                
  23301030.260   122447766.07308  23301027.860    95413851.80747                
                
  20558950.040   108038204.87709  20558951.840    84185666.71049  20558950.620  
  80677929.71209
  22932620.020   120511766.36008  22932624.660    93905309.22348  22932625.160  
  89992576.75108
  24787633.540   130260102.93207  24787632.040   101501478.51146                
                
  22011803.360   115672985.72209  22011801.760    90134860.48348                
                
  22520485.680   118346099.09709  22520488.960    92217824.52049  22520488.960  
  88375392.42608
  22678194.200   121015167.98708  22678201.940    94122914.04107                
                
  19594623.620   104891590.52609  19594624.700    81582387.67008                
                
  20502144.880   109788082.11109  20502144.820    85390742.92208                
                
  22181933.140   118450282.58505  22181934.380    92128003.47905                
                
  20850235.860   111143659.46309  20850238.400    86445114.89008                
                
  23019254.640   123008013.96908  23019258.600    95672967.13606                
                
  22771285.760   121811130.99908                                                
                
  22919120.760   122558837.27808  22919126.640    95323597.32906                
                
 21 10 14 12 02 10.0000000  0 18G03G04G08G16G22G26G27G29G31G32R02R03
                                R04R13R14R15R23R24
  23154615.340   121678320.22708  23154617.080    94814284.34348  23154617.140  
  90863726.00608
  23979843.880   126014947.23107  23979843.940    98193475.94946  23979846.720  
  94102090.67407
  25160672.900   132220230.02104  25160679.800   103028767.13344  25160680.320  
  98735894.15105
  20622829.700   108373840.67109  20622828.020    84447172.10448                
                
  23302119.800   122453491.55808  23302117.420    95418313.20147                
                
  20560298.460   108045290.67209  20560300.220    84191188.10749  20560299.000  
  80683221.04709
  22929237.240   120493989.81708  22929241.840    93891457.39248  22929242.380  
  89979302.08708
  24789923.780   130272137.89107  24789922.200   101510856.40345                
                
  22012624.200   115677299.39109  22012622.640    90138221.77348                
                
  22523218.320   118360459.15909  22523221.600    92229014.14649  22523221.600  
  88386115.82208
  22682268.800   121036910.64108  22682276.520    94139824.95907                
                
  19596420.420   104901208.79809  19596421.460    81589868.53308                
                
  20500169.180   109777502.67809  20500169.200    85382514.46608                
                
  22183861.200   118460578.40905  22183862.480    92136011.34105                
                
  20850598.080   111145590.57209  20850600.640    86446616.85907                
                
  23017938.340   123000980.44508  23017942.320    95667496.62406                
                
  22769974.880   121804118.80308                                                
                
  22916413.340   122544359.41708  22916419.140    95312336.80306                
                
 21 10 14 12 02 15.0000000  0 18G03G04G08G16G22G26G27G29G31G32R02R03
                                R04R13R14R15R23R24
  23154921.680   121679930.26208  23154923.520    94815538.90948  23154923.520  
  90864928.28908
  23976664.680   125998240.44007  23976664.740    98180457.66946  23976667.540  
  94089614.82407
  25157169.840   132201818.99105  25157176.920   103014420.80945  25157176.880  
  98722145.61905
  20621923.500   108369078.53709  20621921.820    84443461.35248                
                
  23303210.980   122459225.80508  23303208.660    95422781.43647                
                
  20561648.500   108052385.22209  20561650.240    84196716.33649  20561649.060  
  80688518.93309
  22925855.200   120476217.07208  22925859.780    93877608.54348  22925860.300  
  89966030.27108
  24792216.140   130284184.09007  24792214.560   101520243.06446                
                
  22013445.440   115681615.08908  22013443.880    90141584.66348                
                
  22525952.800   118374828.89909  22525956.080    92240211.33349  22525956.100  
  88396846.44208
  22686344.160   121058657.61208  22686351.900    94156739.25007                
                
  19598221.020   104910847.60209  19598222.060    81597365.38708                
                
  20498197.200   109766942.85509  20498197.260    85374301.27408                
                
  22185788.900   118470872.08005  22185790.200    92144017.53905                
                
  20850961.100   111147525.79209  20850963.640    86448122.03908                
                
  23016623.220   122993953.41708  23016627.280    95662031.19506                
                
  22768666.820   121797121.52708                                                
                
  22913706.520   122529885.17608  22913712.360    95301079.10806                
                
 21 10 14 12 02 20.0000000  0 18G03G04G08G16G22G26G27G29G31G32R02R03
                                R04R13R14R15R23R24
  23155230.540   121681553.34108  23155232.440    94816803.63548  23155232.380  
  90866140.33008
  23973485.860   125981535.66007  23973485.900    98167440.94546  23973488.720  
  94077140.46707
  25153666.240   132183404.80605  25153672.440   103000072.02145  25153672.820  
  98708394.71905
  20621019.920   108364330.00509  20621018.200    84439761.19748                
                
  23304303.740   122464968.28708  23304301.460    95427256.07947                
                
  20563000.140   108059487.98809  20563001.840    84202250.95749  20563000.660  
  80693822.94709
  22922473.780   120458447.59008  22922478.300    93863762.21448  22922478.840  
  89952760.89008
  24794510.480   130296240.98806  24794508.920   101529638.05046                
                
  22014266.960   115685932.30008  22014265.420    90144948.71848                
                
  22528689.000   118389207.74509  22528692.300    92251415.60749  22528692.340  
  88407583.87808
  22690420.260   121080408.18008  22690427.940    94173656.33106                
                
  19600025.360   104920506.34809  19600026.400    81604877.73308                
                
  20496228.780   109756402.04509  20496228.860    85366102.85508                
                
  22187716.100   118481162.91105  22187717.340    92152021.49505                
                
  20851324.840   111149464.68109  20851327.340    86449630.06108                
                
  23015309.180   122986932.30708  23015313.340    95656570.36906                
                
  22767361.420   121790138.49008                                                
                
  22911000.300   122515414.11208  22911006.160    95289823.88006                
                
 21 10 14 12 02 25.0000000  0 18G03G04G08G16G22G26G27G29G31G32R02R03
                                R04R13R14R15R23R24
  23155542.020   121683190.15808  23155543.960    94818079.07948  23155543.860  
  90867362.60908
  23970307.560   125964833.57507  23970307.600    98154426.34446  23970310.440  
  94064668.13507
  25150161.760   132164988.24805  25150168.360   102985721.41545  25150168.360  
  98694642.02006
  20620119.020   108359595.74909  20620117.300    84436072.18548                
                
  23305398.200   122470719.62708  23305395.920    95431737.64447                
                
  20564353.440   108066599.61209  20564355.120    84207792.49849  20564353.940  
  80699133.57909
  22919093.080   120440682.06508  22919097.580    93849918.99648  22919098.140  
  89939494.46008
  24796806.980   130308309.24007  24796805.420   101539041.87245                
                
  22015088.900   115690251.68708  22015087.380    90148314.48848                
                
  22531427.080   118403596.39509  22531430.380    92262627.53149  22531430.420  
  88418328.62208
  22694497.180   121102163.07308  22694504.800    94190576.80906                
                
  19601833.600   104930185.81709  19601834.620    81612406.21208                
                
  20494264.120   109745881.10909  20494264.160    85357919.91408                
                
  22189642.900   118491451.65905  22189644.060    92160023.88205                
                
  20851689.380   111151407.87109  20851691.860    86451141.43907                
                
  23013996.460   122979917.78608  23014000.540    95651114.68006                
                
  22766058.840   121783170.68308                                                
                
  22908294.860   122500947.05308  22908300.740    95278571.77206                
                
 21 10 14 12 02 30.0000000  0 18G03G04G08G16G22G26G27G29G31G32R02R03
                                R04R13R14R15R23R24
  23155855.820   121684839.05708  23155857.740    94819363.90748  23155857.620  
  90868593.91808
  23967129.460   125948132.58107  23967129.540    98141412.56646  23967132.380  
  94052196.62107
  25146656.320   132146567.61206  25146663.140   102971367.59746  25146663.120  
  98680886.26006
  20619220.540   108354874.16009  20619218.800    84432393.01248                
                
  23306494.040   122476478.25708  23306491.760    95436224.85447                
                
  20565708.120   108073718.46909  20565709.760    84213339.64549  20565708.620  
  80704449.61409
  22915712.840   120422918.89408  22915717.320    93836077.57548  22915717.900  
  89926229.79208
  24799105.340   130320387.18507  24799103.820   101548453.25246                
                
  22015910.960   115694571.61508  22015909.420    90151680.65048                
                
  22534166.720   118417993.19809  22534170.020    92273845.78449  22534170.060  
  88429079.45908
  22698574.620   121123920.82108  22698582.180    94207499.47906                
                
  19603645.420   104939884.27009  19603646.380    81619949.43108                
                
  20492302.760   109735378.22809  20492302.820    85349750.99608                
                
  22191569.040   118501736.65605  22191570.140    92168023.32005                
                
  20852054.420   111153353.68609  20852056.860    86452654.84307                
                
  23012684.680   122972908.19208  23012688.620    95645662.77206                
                
  22764758.740   121776216.25508                                                
                
  22905589.800   122486482.18308  22905595.760    95267321.34806                
                
 21 10 14 12 02 35.0000000  0 18G03G04G08G16G22G26G27G29G31G32R02R03
                                R04R13R14R15R23R24
  23156172.080   121686501.02208  23156174.000    94820658.92948  23156173.860  
  90869835.00808
  23963951.760   125931433.68407  23963951.860    98128400.42646  23963954.700  
  94039726.66007
  25143150.560   132128143.96706  25143157.220   102957011.43746  25143157.300  
  98667128.28606
  20618324.660   108350166.22909  20618322.880    84428724.47248                
                
  23307591.440   122482245.11008  23307589.220    95440718.47847                
                
  20567064.380   108080845.57409  20567066.000    84218893.21949  20567064.860  
  80709771.79509
  22912333.220   120405159.08208  22912337.700    93822238.77448  22912338.300  
  89912967.64508
  24801405.720   130332475.80606  24801404.360   101557872.95245                
                
  22016733.280   115698893.10408  22016731.740    90155048.01948                
                
  22536908.080   118432399.12909  22536911.400    92285071.15049  22536911.440  
  88439837.12708
  22702652.720   121145682.36208  22702660.280    94224425.08306                
                
  19605460.940   104949602.73309  19605461.880    81627508.21008                
                
  20490344.980   109724894.49909  20490345.040    85341596.97208                
                
  22193494.620   118512018.83405  22193495.680    92176020.54605                
                
  20852420.140   111155303.07009  20852422.540    86454171.01007                
                
  23011374.040   122965904.66308  23011377.840    95640215.58705                
                
  22763461.360   121769276.15708                                                
                
  22902885.380   122472020.45608  22902891.340    95256073.36406                
                
 21 10 14 12 02 40.0000000  0 18G03G04G08G16G22G26G27G29G31G32R02R03
                                R04R13R14R15R23R24
  23156490.800   121688175.80707  23156492.680    94821963.96847  23156492.560  
  90871085.65508
  23960774.420   125914736.62607  23960774.540    98115389.74446  23960777.380  
  94027258.07107
  25139643.980   132109717.08006  25139650.780   102942652.79546  25139650.860  
  98653367.92106
  20617431.300   108345471.69309  20617429.540    84425066.40648                
                
  23308690.360   122488019.88408  23308688.180    95445218.29647                
                
  20568422.120   108087980.59109  20568423.740    84224452.97549  20568422.620  
  80715099.90409
  22908954.200   120387402.38008  22908958.660    93808402.43048  22908959.280  
  89899707.81408
  24803708.060   130344574.87606  24803706.760   101567300.78046                
                
  22017555.860   115703215.87808  22017554.320    90158416.42048                
                
  22539651.140   118446813.95109  22539654.460    92296303.46749  22539654.500  
  88450601.41308
  22706731.440   121167447.37308  22706739.040    94241353.41007                
                
  19607280.180   104959340.88909  19607281.080    81635082.33408                
                
  20488390.700   109714429.60509  20488390.820    85333457.62708                
                
  22195419.540   118522297.99905  22195420.620    92184015.46705                
                
  20852786.480   111157255.77509  20852788.840    86455689.78508                
                
  23010064.480   122958906.70408  23010068.120    95634772.77206                
                
  22762166.640   121762350.35908                                                
                
  22900181.460   122457561.84808  22900187.520    95244827.83506                
                
 21 10 14 12 02 45.0000000  0 18G03G04G08G16G22G26G27G29G31G32R02R03
                                R04R13R14R15R23R24
  23156811.640   121689861.95607  23156813.500    94823277.84947  23156813.420  
  90872344.77508
  23957597.120   125898039.93307  23957597.300    98102379.34046  23957600.140  
  94014789.78007
  25136136.580   132091285.37705  25136143.520   102928290.40445  25136143.520  
  98639603.93406
  20616540.220   108340789.08809  20616538.460    84421417.63248                
                
  23309790.480   122493801.14508  23309788.340    95449723.16747                
                
  20569781.120   108095122.10509  20569782.700    84230017.80549  20569781.620  
  80720432.85109
  22905575.480   120369647.37008  22905579.940    93794567.39548  22905580.600  
  89886449.22008
  24806012.120   130356682.89806  24806010.840   101576735.63145                
                
  22018378.420   115707538.47608  22018376.880    90161784.68648                
                
  22542395.620   118461236.17309  22542398.940    92307541.54949  22542398.940  
  88461371.22108
  22710810.560   121189214.17808  22710818.160    94258283.13507                
                
  19609102.820   104969097.32109  19609103.660    81642670.66608                
                
  20486439.700   109703982.18308  20486439.840    85325331.85408                
                
  22197343.660   118532572.69805  22197344.760    92192006.90805                
                
  20853153.180   111159210.39409  20853155.500    86457210.06608                
                
  23008755.680   122951912.84708  23008759.200    95629333.11306                
                
  22760874.320   121755437.24308                                                
                
  22897477.860   122443104.71408  22897483.960    95233583.44506                
                
 21 10 14 12 02 50.0000000  0 18G03G04G08G16G22G26G27G29G31G32R02R03
                                R04R13R14R15R23R24
  23157135.000   121691561.20407  23157136.800    94824601.95847  23157136.800  
  90873613.69108
  23954420.280   125881345.43207  23954420.420    98089370.67646  23954423.300  
  94002323.12007
  25132628.720   132072850.82505  25132635.560   102913925.79245  25132635.560  
  98625837.83606
  20615651.760   108336120.19209  20615650.000    84417779.55748                
                
  23310892.180   122499590.66508  23310890.040    95454234.50047                
                
  20571141.700   108102271.87509  20571143.260    84235589.07949  20571142.200  
  80725771.96509
  22902197.460   120351895.82608  22902201.880    93780735.07048  22902202.540  
  89873193.23208
  24808318.200   130368801.64806  24808316.880   101586178.82446                
                
  22019201.300   115711862.74508  22019199.760    90165154.27748                
                
  22545141.820   118475667.55609  22545145.180    92318786.79049  22545145.160  
  88472147.89108
  22714890.420   121210984.82608  22714898.000    94275215.87806                
                
  19610929.220   104978873.85209  19610930.020    81650274.65508                
                
  20484492.320   109693554.01409  20484492.440    85317221.07608                
                
  22199267.240   118542844.75605  22199268.380    92199996.32205                
                
  20853520.580   111161168.64309  20853522.840    86458733.17407                
                
  23007448.020   122944925.05008  23007451.500    95623898.22206                
                
  22759584.700   121748538.67808                                                
                
  22894774.880   122428650.90908  22894781.000    95222341.65406                
                
 21 10 14 12 02 55.0000000  0 18G03G04G08G16G22G26G27G29G31G32R02R03
                                R04R13R14R15R23R24
  23157461.020   121693274.48407  23157462.800    94825936.95747  23157462.840  
  90874893.08908
  23951244.000   125864654.08107  23951244.160    98076364.41046  23951247.080  
  93989858.80307
  25129120.480   132054414.30305  25129127.200   102899559.62046  25129127.220  
  98612070.24205
  20614766.100   108331465.96209  20614764.320    84414152.86248                
                
  23311995.640   122505389.32408  23311993.500    95458752.89447                
                
  20572504.000   108109430.79708  20572505.540    84241167.43548  20572504.500  
  80731117.91709
  22898820.280   120334148.67308  22898824.640    93766906.12748  22898825.340  
  89859940.53308
  24810626.520   130380932.03606  24810625.140   101595631.03346                
                
  22020024.640   115716189.53108  22020023.100    90168525.77448                
                
  22547889.940   118490109.03709  22547893.320    92330039.85549  22547893.320  
  88482932.09908
  22718971.180   121232760.33008  22718978.720    94292152.34206                
                
  19612759.520   104988671.22209  19612760.260    81657894.80208                
                
  20482548.720   109683146.09209  20482548.800    85309125.99908                
                
  22201190.560   118553115.06005  22201191.640    92207984.31105                
                
  20853888.860   111163131.49209  20853891.060    86460259.81408                
                
  23006141.640   122937944.18608  23006145.180    95618468.67206                
                
  22758298.020   121741655.63108                                                
                
  22892072.780   122414201.58408  22892078.900    95211103.31206                
                
 21 10 14 12 03  0.0000000  0 18G03G04G08G16G22G26G27G29G31G32R02R03
                                R04R13R14R15R23R24
  23157789.980   121695003.27807  23157791.760    94827284.04747  23157791.840  
  90876184.05408
  23948068.600   125847967.30107  23948068.760    98063361.72347  23948071.700  
  93977397.89107
  25125612.020   132035977.21406  25125618.780   102885193.00546  25125618.800  
  98598302.24806
  20613883.500   108326827.81809  20613881.720    84410538.72048                
                
  23313101.140   122511198.61608  23313099.000    95463279.59947                
                
  20573868.320   108116600.32909  20573869.860    84246754.07549  20573868.840  
  80736471.78609
  22895444.180   120316407.37908  22895448.560    93753081.77148  22895449.240  
  89846692.19908
  24812937.320   130393075.59007  24812936.000   101605093.55146                
                
  22020848.740   115720520.37908  22020847.200    90171900.45548                
                
  22550640.260   118504562.06709  22550643.640    92341301.92349  22550643.660  
  88493724.90808
  22723053.040   121254541.87508  22723060.580    94309093.52207                
                
  19614594.020   104998491.07709  19614594.700    81665532.46108                
                
  20480609.180   109672759.87309  20480609.220    85301047.82708                
                
  22203113.700   118563385.01705  22203114.840    92215972.05805                
                
  20854258.240   111165100.33009  20854260.400    86461791.13608                
                
  23004836.840   122930971.74908  23004840.480    95613045.69006                
                
  22757014.500   121734789.55508                                                
                
  22889371.740   122399758.09908  22889377.880    95199869.51906                
                
 21 10 14 12 03  5.0000000  0 18G03G04G08G16G22G26G27G29G31G32R02R03
                                R04R13R14R15R23R24
  23158121.460   121696745.19906  23158123.220    94828641.35945  23158123.340  
  90877484.85508
  23944893.620   125831282.76405  23944893.720    98050360.77645  23944896.760  
  93964938.70707
  25122102.920   132017537.10204  25122109.720   102870824.02244  25122109.900  
  98584532.05906
  20613003.500   108322203.39207  20613001.720    84406935.25447                
                
  23314208.200   122517016.16807  23314206.020    95467812.72846                
                
  20575234.240   108123778.12407  20575235.740    84252347.14646  20575234.740  
  80741831.84609
  22892068.800   120298669.65006  22892073.160    93739260.17946  22892073.840  
  89833446.55808
  24815250.200   130405229.83305  24815248.920   101614564.37544                
                
  22021673.160   115724852.90807  22021671.620    90175276.43246                
                
  22553392.360   118519024.27107  22553395.740    92352571.14047  22553395.740  
  88504524.61208
  22727135.540   121276327.16506  22727143.140    94326037.60806                
                
  19616432.240   105008330.95307  19616432.900    81673185.67308                
                
  20478673.260   109662392.97607  20478673.220    85292984.66208                
                
  22205036.400   118573652.35504  22205037.560    92223957.75605                
                
  20854628.340   111167072.83508  20854630.440    86463325.29907                
                
  23003533.160   122924005.30306  23003536.860    95607627.35306                
                
  22755733.640   121727938.13606                                                
                
  22886671.320   122385318.00707  22886677.560    95188638.37606                
                
 21 10 14 12 03 10.0000000  0 18G03G04G08G16G22G26G27G29G31G32R02R03
                                R04R13R14R15R23R24
  23158455.300   121698499.57108  23158457.060    94830008.44347  23158457.200  
  90878794.92008
  23941718.960   125814599.85207  23941719.060    98037361.16646  23941722.120  
  93952480.66907
  25118593.320   131999093.59606  25118600.120   102856452.48746  25118600.260  
  98570759.21106
  20612126.000   108317592.06408  20612124.220    84403342.06348                
                
  23315316.680   122522841.32008  23315314.580    95472351.83647                
                
  20576601.580   108130963.48908  20576603.100    84257946.17248  20576602.060  
  80747197.52109
  22888693.940   120280934.82508  22888698.320    93725440.91448  22888699.000  
  89820203.02408
  24817564.960   130417394.15206  24817563.760   101624043.12046                
                
  22022497.780   115729186.43108  22022496.280    90178653.24848                
                
  22556146.060   118533494.98908  22556149.480    92363847.05148  22556149.440  
  88515330.63008
  22731218.680   121298115.61708  22731226.300    94342984.21507                
                
  19618274.080   105018190.19109  19618274.720    81680854.00908                
                
  20476740.820   109652044.68409  20476740.740    85284936.03008                
                
  22206958.460   118583916.37705  22206959.700    92231940.93005                
                
  20854998.980   111169048.37109  20855001.040    86464861.87008                
                
  23002230.480   122917044.20808  23002234.220    95602213.24106                
                
  22754455.400   121721100.78608                                                
                
  22883971.480   122370880.92308  22883977.740    95177409.61806                
                
 21 10 14 12 03 15.0000000  0 18G03G04G08G16G22G26G27G29G31G32R02R03
                                R04R13R14R15R23R24
  23158791.620   121700266.92908  23158793.380    94831385.60148  23158793.520  
  90880114.68308
  23938544.740   125797919.07407  23938544.820    98024363.13746  23938547.880  
  93940024.22807
  25115083.100   131980647.13406  25115089.800   102842078.58646  25115090.060  
  98556984.19606
  20611251.060   108312994.29709  20611249.300    84399759.38748                
                
  23316426.700   122528674.52808  23316424.600    95476897.17247                
                
  20577970.460   108138156.94109  20577971.980    84263551.45849  20577970.920  
  80752569.25109
  22885319.760   120263203.41608  22885324.080    93711624.26048  22885324.800  
  89806962.07308
  24819881.700   130429569.06807  24819880.540   101633530.05245                
                
  22023322.720   115733521.52008  22023321.220    90182031.23948                
                
  22558901.460   118547974.74509  22558904.900    92375129.94949  22558904.840  
  88526143.40008
  22735302.460   121319907.28408  22735310.020    94359933.27906                
                
  19620119.620   105028069.20309  19620120.220    81688537.67508                
                
  20474811.960   109641715.52609  20474811.840    85276902.23608                
                
  22208880.100   118594177.65105  22208881.260    92239921.91505                
                
  20855370.300   111171027.36709  20855372.300    86466401.08907                
                
  23000928.900   122910088.92408  23000932.660    95596803.57806                
                
  22753179.880   121714277.93208                                                
                
  22881272.220   122356447.04808  22881278.540    95166183.31206                
                
 21 10 14 12 03 20.0000000  0 18G03G04G08G16G22G26G27G29G31G32R02R03
                                R04R13R14R15R23R24
  23159130.280   121702046.57108  23159132.040    94832772.32048  23159132.180  
  90881443.63208
  23935370.740   125781239.74407  23935370.880    98011366.25847  23935373.900  
  93927568.88807
  25111572.180   131962196.96506  25111578.740   102827701.79046  25111579.140  
  98543206.44106
  20610378.600   108308409.44109  20610376.840    84396186.76948                
                
  23317538.140   122534515.12108  23317536.040    95481448.26547                
                
  20579340.760   108145357.80109  20579342.260    84269162.51548  20579341.180  
  80757946.52609
  22881946.080   120245474.77308  22881950.360    93697809.75448  22881951.120  
  89793723.19508
  24822200.380   130441753.82706  24822199.220   101643024.69145                
                
  22024147.820   115737857.47108  22024146.320    90185409.89448                
                
  22561658.460   118562462.82809  22561661.900    92386419.34449  22561661.840  
  88536962.40108
  22739386.840   121341702.19808  22739394.360    94376884.86406                
                
  19621968.760   105037967.42809  19621969.300    81696236.27508                
                
  20472886.560   109631404.98109  20472886.400    85268882.91708                
                
  22210801.080   118604435.45105  22210802.220    92247900.20405                
                
  20855742.120   111173009.24009  20855744.080    86467942.54608                
                
  22999628.300   122903138.82108  22999632.040    95591397.94906                
                
  22751906.960   121707468.92808                                                
                
  22878573.500   122342016.08108  22878579.860    95154959.25006                
                
 21 10 14 12 03 25.0000000  0 18G03G04G08G16G22G26G27G29G31G32R02R03
                                R04R13R14R15R23R24
  23159471.260   121703838.55608  23159473.080    94834168.62648  23159473.200  
  90882781.79308
  23932197.100   125764561.95607  23932197.180    97998370.53947  23932200.240  
  93915114.68607
  25108060.520   131943743.18006  25108067.000   102813322.17046  25108067.540  
  98529425.99606
  20609508.620   108303837.56309  20609506.840    84392624.23548                
                
  23318651.020   122540363.14308  23318648.860    95486005.11247                
                
  20580712.460   108152566.09909  20580713.960    84274779.33249  20580712.880  
  80763329.33809
  22878572.940   120227748.96908  22878577.180    93683997.43748  22878577.940  
  89780486.42608
  24824520.920   130453948.51306  24824519.660   101652526.99345                
                
  22024973.120   115742194.31808  22024971.600    90188789.21848                
                
  22564417.060   118576959.29509  22564420.480    92397715.23349  22564420.440  
  88547787.67108
  22743471.680   121363499.67908  22743479.200    94393838.41707                
                
  19623821.460   105047884.76809  19623821.960    81703949.73108                
                
  20470964.620   109621113.05509  20470964.440    85260878.05708                
                
  22212721.360   118614689.63105  22212722.540    92255875.65705                
                
  20856114.460   111174993.88609  20856116.400    86469486.13508                
                
  22998328.580   122896193.85108  22998332.320    95585996.30306                
                
  22750636.660   121700673.74108                                                
                
  22875875.240   122327587.63108  22875881.660    95143737.13906                
                
 21 10 14 12 03 30.0000000  0 18G03G04G08G16G22G26G27G29G31G32R02R03
                                R04R13R14R15R23R24
  23159814.720   121705643.39308  23159816.580    94835574.96948  23159816.680  
  90884129.55508
  23929023.820   125747886.21807  23929023.880    97985376.42846  23929026.940  
  93902662.02107
  25104548.320   131925286.37406  25104554.760   102798940.17546  25104555.380  
  98515643.25506
  20608641.180   108299279.16109  20608639.400    84389072.21848                
                
  23319765.380   122546219.10208  23319763.200    95490568.16947                
                
  20582085.680   108159782.34009  20582087.160    84280402.36349  20582086.060  
  80768718.09309
  22875200.440   120210026.53708  22875204.680    93670187.75248  22875205.440  
  89767252.17308
  24826843.420   130466153.65006  24826842.220   101662037.46146                
                
  22025798.660   115746532.57608  22025797.160    90192169.65648                
                
  22567177.340   118591464.65909  22567180.780    92409018.08349  22567180.740  
  88558619.56608
  22747557.160   121385300.57808  22747564.720    94410794.63707                
                
  19625677.860   105057821.83509  19625678.300    81711678.53508                
                
  20469046.240   109610840.22009  20469046.080    85252888.05508                
                
  22214641.160   118624940.82405  22214642.240    92263848.78505                
                
  20856487.440   111176981.91709  20856489.360    86471032.37108                
                
  22997029.960   122889254.63808  22997033.740    95580599.14006                
                
  22749369.080   121693893.09108                                                
                
  22873177.640   122313162.68008  22873184.100    95132517.77006                
                
 21 10 14 12 03 35.0000000  0 18G03G04G08G16G22G26G27G29G31G32R02R03
                                R04R13R14R15R23R24
  23160160.600   121707460.80008  23160162.480    94836991.19048  23160162.580  
  90885486.70308
  23925850.900   125731212.28707  23925850.920    97972383.81646  23925854.000  
  93890210.71307
  25101035.500   131906826.29306  25101041.860   102784555.73446  25101042.600  
  98501858.11406
  20607776.260   108294733.98609  20607774.480    84385530.58548                
                
  23320881.220   122552082.73608  23320879.060    95495137.28847                
                
  20583460.360   108167006.26609  20583461.860    84286031.45849  20583460.720  
  80774112.58009
  22871828.560   120192307.19908  22871832.780    93656380.56848  22871833.520  
  89754020.23808
  24829167.880   130478369.01206  24829166.720   101671555.96546                
                
  22026624.460   115750872.01309  22026622.960    90195551.10048                
                
  22569939.260   118605978.62809  22569942.740    92420327.70749  22569942.640  
  88569457.90008
  22751643.340   121407105.13208  22751650.960    94427753.77407                
                
  19627537.840   105067778.34609  19627538.280    81719422.53708                
                
  20467131.380   109600586.26909  20467131.240    85244912.81608                
                
  22216560.300   118635188.85505  22216561.400    92271819.53405                
                
  20856861.000   111178972.99409  20856862.920    86472581.03808                
                
  22995732.420   122882320.89508  22995736.220    95575206.30106                
                
  22748104.140   121687126.64008                                                
                
  22870480.640   122298740.72708  22870487.120    95121300.77806                
                
 21 10 14 12 03 40.0000000  0 18G03G04G08G16G22G26G27G29G31G32R02R03
                                R04R13R14R15R23R24
  23160509.060   121709291.91408  23160511.000    94838417.99148  23160511.080  
  90886854.08808
  23922678.540   125714541.32007  23922678.580    97959393.41846  23922681.620  
  93877761.60407
  25097522.300   131888364.12906  25097528.660   102770169.55446  25097529.400  
  98488071.38007
  20606914.060   108290203.14009  20606912.280    84382000.03048                
                
  23321998.720   122557955.18308  23321996.540    95499713.16947                
                
  20584836.740   108174238.99509  20584838.200    84291667.31749  20584837.060  
  80779513.65709
  22868457.480   120174592.17008  22868461.660    93642576.65348  22868462.440  
  89740791.53008
  24831494.560   130490595.61407  24831493.340   101681083.15946                
                
  22027450.660   115755213.73708  22027449.180    90198934.22848                
                
  22572703.040   118620502.37409  22572706.520    92431644.85649  22572706.420  
  88580303.53308
  22755730.220   121428913.32308  22755737.860    94444715.65207                
                
  19629401.680   105077755.38709  19629402.100    81727182.41508                
                
  20465220.280   109590352.38109  20465220.120    85236953.08808                
                
  22218478.960   118645434.83805  22218480.140    92279788.60605                
                
  20857235.320   111180968.27409  20857237.240    86474132.89108                
                
  22994436.120   122875393.75908  22994439.920    95569818.52506                
                
  22746842.080   121680375.57708                                                
                
  22867784.420   122284323.15008  22867790.920    95110087.11406                
                
 21 10 14 12 03 45.0000000  0 18G03G04G08G16G22G26G27G29G31G32R02R03
                                R04R13R14R15R23R24
  23160860.080   121711136.52908  23160862.120    94839855.38848  23160862.140  
  90888231.56408
  23919506.740   125697873.10708  23919506.720    97946405.24746  23919509.780  
  93865314.57607
  25094008.580   131869899.51106  25094015.000   102755781.54647  25094015.700  
  98474282.83907
  20606054.580   108285686.48909  20606052.800    84378480.60148                
                
  23323117.860   122563836.21408  23323115.700    95504295.81747                
                
  20586214.720   108181480.32309  20586216.180    84297309.95649  20586215.020  
  80784921.14909
  22865087.180   120156881.22908  22865091.340    93628775.98348  22865092.140  
  89727565.85708
  24833823.340   130502833.31707  24833822.000   101690619.05846                
                
  22028277.280   115759557.62809  22028275.840    90202319.11548                
                
  22575468.660   118635035.65309  22575472.120    92442969.50949  22575472.020  
  88591156.29208
  22759817.880   121450725.74308  22759825.540    94461680.90206                
                
  19631269.320   105087752.85509  19631269.740    81734958.26108                
                
  20463312.880   109580138.36709  20463312.760    85229008.90108                
                
  22220397.320   118655678.57805  22220398.460    92287755.99505                
                
  20857610.380   111182967.57409  20857612.320    86475687.94807                
                
  22993141.020   122868472.95608  22993144.760    95564435.74006                
                
  22745582.860   121673639.68808                                                
                
  22865088.960   122269909.63508  22865095.500    95098876.68106                
                
 21 10 14 12 03 50.0000000  0 18G03G04G08G16G22G26G27G29G31G32R02R03
                                R04R13R14R15R23R24
  23161213.480   121712993.56108  23161215.560    94841302.42448  23161215.560  
  90889618.29108
  23916335.220   125681206.57808  23916335.160    97933418.34946  23916338.240  
  93852868.80307
  25090494.200   131851431.37706  25090500.680   102741390.76846  25090501.340  
  98460491.65106
  20605197.540   108281182.92909  20605195.800    84374971.33548                
                
  23324238.420   122569724.75208  23324236.260    95508884.27847                
                
  20587594.140   108188729.14009  20587595.560    84302958.38749  20587594.420  
  80790334.22809
  22861717.460   120139173.28008  22861721.580    93614977.61748  22861722.380  
  89714342.43208
  24836154.040   130515081.00007  24836152.740   101700162.71146                
                
  22029104.080   115763902.51209  22029102.660    90205704.73748                
                
  22578235.880   118649577.37209  22578239.320    92454300.69849  22578239.220  
  88602015.33608
  22763906.060   121472540.98808  22763913.740    94478648.30506                
                
  19633140.540   105097769.49709  19633140.960    81742748.97708                
                
  20461408.940   109569943.06409  20461408.860    85221079.22208                
                
  22222314.980   118665918.97905  22222316.140    92295720.75205                
                
  20857986.000   111184969.74109  20857987.920    86477245.18707                
                
  22991846.900   122861557.39208  22991850.560    95559056.99506                
                
  22744326.280   121666917.97608                                                
                
  22862394.020   122255499.04808  22862400.640    95087668.49606                
                
 21 10 14 12 03 55.0000000  0 18G03G04G08G16G22G26G27G29G31G32R02R03
                                R04R13R14R15R23R24
  23161569.460   121714864.07808  23161571.540    94842759.94948  23161571.500  
  90891015.10008
  23913164.240   125664542.85808  23913164.120    97920433.62646  23913167.220  
  93840425.10807
  25086979.420   131832960.93907  25086985.880   102726998.15346  25086986.560  
  98446698.74707
  20604343.220   108276693.48609  20604341.500    84371473.06048                
                
  23325360.600   122575621.87208  23325358.460    95513479.41147                
                
  20588975.200   108195986.52809  20588976.580    84308613.48049  20588975.460  
  80795753.71209
  22858348.520   120121469.46508  22858352.620    93601182.44848  22858353.400  
  89701122.07408
  24838486.840   130527339.70707  24838485.540   101709714.94346                
                
  22029931.300   115768249.52509  22029929.860    90209092.00648                
                
  22581004.920   118664128.62309  22581008.320    92465639.29849  22581008.240  
  88612881.50608
  22767995.000   121494360.29908  22768002.720    94495618.85807                
                
  19635015.580   105107806.46309  19635015.960    81750555.47508                
                
  20459508.740   109559767.70509  20459508.680    85213165.03408                
                
  22224232.200   118676157.06205  22224233.360    92303683.70205                
                
  20858362.360   111186976.00209  20858364.300    86478805.59408                
                
  22990554.020   122854648.26708  22990557.600    95553683.23806                
                
  22743072.560   121660211.44408                                                
                
  22859699.900   122241092.58908  22859706.540    95076463.50007                
                
 21 10 14 12 04  0.0000000  0 18G03G04G08G16G22G26G27G29G31G32R02R03
                                R04R13R14R15R23R24
  23161927.780   121716746.92308  23161929.860    94844227.08748  23161929.760  
  90892421.11308
  23909993.560   125647880.77008  23909993.440    97907450.17946  23909996.540  
  93827982.64907
  25083463.940   131814487.08007  25083470.420   102712602.90047  25083471.140  
  98432903.27507
  20603491.360   108272217.02409  20603489.660    84367984.90648                
                
  23326484.160   122581526.38708  23326482.040    95518080.31047                
                
  20590357.660   108203251.33109  20590359.020    84314274.36549  20590357.900  
  80801178.72309
  22854980.160   120103768.61408  22854984.240    93587389.60448  22854985.000  
  89687903.94508
  24840821.520   130539608.33907  24840820.160   101719274.89946                
                
  22030758.700   115772597.53109  22030757.240    90212480.06048                
                
  22583775.520   118678688.23209  22583778.920    92476984.42849  22583778.840  
  88623753.91608
  22772084.540   121516182.59908  22772092.280    94512591.75307                
                
  19636894.200   105117862.58509  19636894.560    81758376.90008                
                
  20457612.040   109549611.10409  20457612.020    85205265.45108                
                
  22226148.740   118686391.62805  22226149.900    92311643.92805                
                
  20858739.220   111188985.00609  20858741.200    86480368.13808                
                
  22989262.060   122847744.29908  22989265.640    95548313.51606                
                
  22741821.480   121653518.98808                                                
                
  22857006.340   122226689.05708  22857012.960    95065260.78206                
                
 21 10 14 12 04  5.0000000  0 18G03G04G08G16G22G26G27G29G31G32R02R03
                                R04R13R14R15R23R24
  23162288.600   121718642.95008  23162290.640    94845704.46848  23162290.540  
  90893836.97108
  23906823.340   125631221.20608  23906823.220    97894468.66846  23906826.320  
  93815542.06007
  25079948.020   131796010.57507  25079954.480   102698205.52947  25079955.240  
  98419105.83407
  20602642.140   108267754.36409  20602640.440    84364507.47548                
                
  23327609.280   122587439.14808  23327607.180    95522687.60146                
                
  20591741.700   108210524.38909  20591743.020    84319941.65749  20591741.920  
  80806609.90309
  22851612.500   120086071.58808  22851616.540    93573599.71448  22851617.340  
  89674688.67908
  24843158.260   130551887.66507  24843156.840   101728843.19745                
                
  22031586.460   115776947.33109  22031584.980    90215869.48048                
                
  22586547.900   118693257.04809  22586551.260    92488336.69749  22586551.200  
  88634633.20508
  22776174.700   121538008.38008  22776182.480    94529567.31507                
                
  19638776.520   105127938.67309  19638776.860    81766213.82108                
                
  20455719.020   109539474.10909  20455719.020    85197381.09208                
                
  22228064.760   118696623.57505  22228065.980    92319602.06805                
                
  20859116.760   111190997.69309  20859118.780    86481933.53008                
                
  22987971.180   122840846.35108  22987974.760    95542948.44106                
                
  22740573.200   121646841.47308                                                
                
  22854313.440   122212289.35208  22854320.060    95054061.03406                
                
 21 10 14 12 04 10.0000000  0 18G03G04G08G16G22G26G27G29G31G32R02R03
                                R04R13R14R15R23R24
  23162651.680   121720550.81408  23162653.700    94847191.14648  23162653.600  
  90895261.65408
  23903653.360   125614562.82308  23903653.260    97881488.14846  23903656.320  
  93803102.36207
  25076431.340   131777530.14507  25076437.840   102683805.19547  25076438.560  
  98405305.46407
  20601795.300   108263304.19509  20601793.600    84361039.85448                
                
  23328735.720   122593358.82808  23328733.680    95527300.36147                
                
  20593127.040   108217804.34809  20593128.340    84325614.39749  20593127.240  
  80812046.24109
  22848245.360   120068377.16108  22848249.380    93559811.91248  22848250.160  
  89661475.32608
  24845496.760   130564176.36807  24845495.340   101738418.84245                
                
  22032414.320   115781297.63609  22032412.800    90219259.36748                
                
  22589321.760   118707833.74609  22589325.140    92499695.18649  22589325.060  
  88645518.37708
  22780265.300   121559836.52008  22780273.100    94546544.78907                
                
  19640662.300   105138033.38809  19640662.680    81774065.30508                
                
  20453829.420   109529355.37309  20453829.420    85189511.00008                
                
  22229980.060   118706851.55005  22229981.340    92327557.19805                
                
  20859494.760   111193012.72609  20859496.820    86483500.81908                
                
  22986681.200   122833953.16908  22986684.800    95537587.11706                
                
  22739327.480   121640177.58008                                                
                
  22851621.040   122197892.23208  22851627.640    95042863.36007                
                
 21 10 14 12 04 15.0000000  0 18G03G04G08G16G22G26G27G29G31G32R02R03
                                R04R13R14R15R23R24
  23163017.400   121722472.58608  23163019.380    94848688.63148  23163019.320  
  90896696.73308
  23900484.020   125597907.72608  23900483.920    97868510.17546  23900486.980  
  93790665.12107
  25072914.260   131759047.87207  25072920.840   102669403.39447  25072921.540  
  98391503.72007
  20600951.220   108258868.61909  20600949.520    84357583.57848                
                
  23329863.900   122599287.48808  23329861.880    95531920.09846                
                
  20594514.100   108225093.31009  20594515.400    84331294.12049  20594514.280  
  80817489.30409
  22844879.080   120050687.32208  22844883.100    93546027.66548  22844883.860  
  89648265.41808
  24847837.480   130576476.60407  24847836.000   101748003.44645                
                
  22033242.680   115785650.54709  22033241.120    90222651.26048                
                
  22592097.500   118722420.38709  22592100.920    92511061.39349  22592100.800  
  88656410.97508
  22784356.680   121581668.84908  22784364.500    94563525.49507                
                
  19642551.960   105148148.81609  19642552.340    81781932.86908                
                
  20451943.660   109519257.05309  20451943.620    85181656.76308                
                
  22231895.160   118717077.69805  22231896.340    92335510.87705                
                
  20859873.560   111195032.15409  20859875.700    86485071.50208                
                
  22985392.480   122827066.81108  22985396.100    95532231.09606                
                
  22738084.660   121633529.41108                                                
                
  22848929.540   122183499.62008  22848936.040    95031669.16407                
                
 21 10 14 12 04 20.0000000  0 18G03G04G08G16G22G26G27G29G31G32R02R03
                                R04R13R14R15R23R24
  23163385.760   121724408.24908  23163387.680    94850196.91948  23163387.700  
  90898142.18608
  23897315.280   125581255.91407  23897315.200    97855534.72346  23897318.240  
  93778230.32207
  25069396.820   131740563.77107  25069403.460   102655000.15547  25069404.160  
  98377700.60407
  20600109.900   108254447.56608  20600108.220    84354138.59148                
                
  23330993.780   122605225.07308  23330991.740    95536546.76446                
                
  20595902.880   108232391.21509  20595904.140    84336980.79349  20595903.040  
  80822939.04009
  22841513.660   120033002.11508  22841517.680    93532247.00648  22841518.420  
  89635058.97008
  24850180.340   130588788.26907  24850178.820   101757596.96545                
                
  22034071.500   115790005.99708  22034069.900    90226045.10747                
                
  22594875.140   118737016.94209  22594878.580    92522435.30749  22594878.420  
  88667310.98408
  22788448.880   121603505.69208  22788456.740    94580509.69407                
                
  19644445.480   105158284.93909  19644445.860    81789816.50608                
                
  20450061.680   109509179.10609  20450061.640    85173818.35808                
                
  22233809.800   118727302.00905  22233811.000    92343463.12105                
                
  20860253.180   111197055.99009  20860255.400    86486645.59408                
                
  22984105.020   122820187.24808  22984108.720    95526880.33906                
                
  22736844.840   121626897.03408                                                
                
  22846238.940   122169111.87208  22846245.420    95020478.73006                
                
 21 10 14 12 04 25.0000000  0 18G03G04G08G16G22G26G27G29G31G32R02R03
                                R04R13R14R15R23R24
  23163756.280   121726355.33208  23163758.180    94851714.12448  23163758.280  
  90899596.17808
  23894146.700   125564604.96108  23894146.620    97842559.95246  23894149.680  
  93765796.17707
  25065878.600   131722075.38407  25065885.280   102640593.56547  25065885.980  
  98363894.30007
  20599270.900   108250038.65109  20599269.240    84350703.07748                
                
  23332124.900   122611169.19608  23332122.860    95541178.52946                
                
  20597292.880   108239695.64609  20597294.140    84342672.55749  20597293.020  
  80828393.65309
  22838148.660   120015319.11308  22838152.640    93518468.07048  22838153.420  
  89621854.17508
  24852524.900   130601108.97007  24852523.420   101767197.51446                
                
  22034900.360   115794361.61209  22034898.720    90229439.09748                
                
  22597654.200   118751620.96409  22597657.640    92533815.04049  22597657.500  
  88678216.56308
  22792541.440   121625344.36108  22792549.340    94597495.30806                
                
  19646342.420   105168439.28209  19646342.780    81797714.31108                
                
  20448183.080   109499119.16009  20448183.020    85165993.94508                
                
  22235723.640   118737521.94605  22235724.840    92351411.96405                
                
  20860633.180   111199081.73209  20860635.440    86488221.16707                
                
  22982818.400   122813311.89208  22982822.060    95521532.85906                
                
  22735607.500   121620277.93008                                                
                
  22843548.680   122154726.16108  22843555.160    95009289.88806                
                
 21 10 14 12 04 30.0000000  0 18G03G04G08G16G22G26G27G29G31G32R02R03
                                R04R13R14R15R23R24
  23164129.280   121728315.42908  23164131.140    94853241.45048  23164131.320  
  90901059.89108
  23890978.620   125547956.44607  23890978.500    97829587.06346  23890981.560  
  93753363.84208
  25062359.900   131703584.36707  25062366.620   102626184.92347  25062367.280  
  98350086.02207
  20598434.500   108245643.43709  20598432.840    84347278.20648                
                
  23333257.580   122617121.34708  23333255.520    95545816.52746                
                
  20598684.420   108247008.14809  20598685.680    84348370.58749  20598684.520  
  80833854.28209
  22834784.380   119997639.89108  22834788.380    93504692.05748  22834789.140  
  89608652.19308
  24854871.440   130613440.18207  24854869.940   101776806.23445                
                
  22035729.520   115798718.94009  22035727.860    90232834.39148                
                
  22600435.000   118766234.02709  22600438.400    92545201.80249  22600438.280  
  88689128.89208
  22796634.640   121647186.38308  22796642.560    94614483.51706                
                
  19648243.080   105178613.47109  19648243.400    81805627.54808                
                
  20446308.100   109489078.68709  20446308.040    85158184.67608                
                
  22237636.940   118747739.17905  22237638.180    92359358.68005                
                
  20861013.840   111201110.93009  20861016.140    86489799.41608                
                
  22981532.900   122806442.49508  22981536.540    95516189.98406                
                
  22734372.980   121613673.71208                                                
                
  22840859.100   122140344.27608  22840865.600    94998104.00806                
                
 21 10 14 12 04 35.0000000  0 18G03G04G08G16G22G26G27G29G31G32R02R03
                                R04R13R14R15R23R24
  23164504.980   121730289.65408  23164506.820    94854779.80548  23164507.040  
  90902534.14008
  23887811.200   125531311.46308  23887811.060    97816616.95746  23887814.120  
  93740934.15707
  25058840.900   131685091.81407  25058847.640   102611775.11047  25058848.280  
  98336276.62007
  20597600.920   108241263.00208  20597599.280    84343864.88748                
                
  23334391.980   122623082.63008  23334389.940    95550461.68147                
                
  20600077.680   108254329.78409  20600078.940    84354075.76649  20600077.780  
  80839321.75109
  22831421.060   119979965.57808  22831425.080    93490919.91248  22831425.780  
  89595453.87908
  24857220.200   130625783.07007  24857218.700   101786424.08345                
                
  22036559.260   115803079.08309  22036557.560    90236231.91148                
                
  22603217.700   118780857.20909  22603221.120    92556596.47949  22603220.980  
  88700048.77508
  22800728.640   121669032.82108  22800736.600    94631475.19107                
                
  19650147.620   105188808.52909  19650147.900    81813557.03208                
                
  20444437.000   109479058.91109  20444436.900    85150391.52108                
                
  22239549.880   118757954.80505  22239551.260    92367304.17705                
                
  20861395.320   111203144.72409  20861397.700    86491381.26608                
                
  22980248.680   122799580.07208  22980252.360    95510852.57506                
                
  22733141.400   121607085.47208                                                
                
  22838170.540   122125967.42508  22838177.000    94986922.06207                
                
 21 10 14 12 04 40.0000000  0 18G03G04G08G16G22G26G27G29G31G32R02R03
                                R04R13R14R15R23R24
  23164883.040   121732276.38508  23164884.900    94856327.92048  23164885.120  
  90904017.72508
  23884644.140   125514668.46607  23884644.020    97803648.41447  23884647.040  
  93728505.94507
  25055321.320   131666596.10908  25055328.100   102597362.87147  25055328.700  
  98322464.84007
  20596769.860   108236895.80009  20596768.240    84340461.89648                
                
  23335527.800   122629051.47808  23335525.820    95555112.73247                
                
  20601472.400   108261659.02709  20601473.680    84359786.88649  20601472.480  
  80844794.87709
  22828058.360   119962294.63008  22828062.400    93477150.39048  22828063.020  
  89582258.07508
  24859570.900   130638136.00807  24859569.380   101796049.76145                
                
  22037389.220   115807440.45709  22037387.480    90239630.40748                
                
  22606002.040   118795488.93609  22606005.480    92567997.82949  22606005.320  
  88710975.05108
  22804823.220   121690882.27608  22804831.160    94648469.24706                
                
  19652055.740   105199022.84709  19652056.020    81821501.52708                
                
  20442569.440   109469058.19309  20442569.340    85142613.20608                
                
  22241462.300   118768167.30405  22241463.780    92375247.25305                
                
  20861777.400   111205181.54009  20861779.800    86492965.47708                
                
  22978965.480   122792723.03708  22978969.160    95505519.38606                
                
  22731912.520   121600511.73608                                                
                
  22835482.620   122111593.91208  22835489.000    94975742.71807                
                
 21 10 14 12 04 45.0000000  0 18G03G04G08G16G22G26G27G29G31G32R02R03
                                R04R13R14R15R23R24
  23165263.600   121734276.24207  23165265.460    94857886.23747  23165265.720  
  90905511.11408
  23881477.600   125498028.10507  23881477.500    97790681.88746  23881480.460  
  93716079.68908
  25051801.280   131648097.90408  25051808.020   102582948.61748  25051808.620  
  98308651.18207
  20595941.460   108232542.41308  20595939.820    84337069.64548                
                
  23336665.180   122635028.50008  23336663.200    95559770.14547                
                
  20602868.680   108268996.43909  20602869.940    84365504.34449  20602868.720  
  80850274.12109
  22824696.440   119944627.64208  22824700.440    93463383.92048  22824701.040  
  89569065.22608
  24861923.620   130650499.64307  24861922.160   101805683.78545                
                
  22038219.540   115811803.70509  22038217.780    90243030.33648                
                
  22608788.140   118810129.81909  22608791.560    92579406.28349  22608791.400  
  88721908.15608
  22808918.460   121712735.13908  22808926.320    94665465.90906                
                
  19653967.600   105209257.06909  19653967.840    81829461.45308                
                
  20440705.580   109459077.22209  20440705.460    85134850.22008                
                
  22243374.240   118778377.20505  22243375.800    92383188.27605                
                
  20862160.120   111207221.94909  20862162.600    86494552.45707                
                
  22977683.400   122785872.02808  22977687.020    95500190.83206                
                
  22730686.440   121593953.06208                                                
                
  22832795.400   122097224.33108  22832801.820    94964566.41706                
                
 21 10 14 12 04 50.0000000  0 18G03G04G08G16G22G26G27G29G31G32R02R03
                                R04R13R14R15R23R24
  23165646.880   121736290.31008  23165648.740    94859455.62548  23165649.020  
  90907015.13608
  23878311.740   125481391.43508  23878311.660    97777718.24846  23878314.600  
  93703656.22307
  25048280.980   131629598.16108  25048287.640   102568533.19048  25048288.260  
  98294836.40007
  20595115.880   108228203.95509  20595114.220    84333689.01648                
                
  23337804.320   122641014.78708  23337802.320    95564434.75047                
                
  20604266.720   108276343.14109  20604267.980    84371229.03149  20604266.740  
  80855760.28309
  22821335.460   119926965.75208  22821339.460    93449621.43548  22821340.080  
  89555876.19508
  24864278.580   130662875.03607  24864277.220   101815326.91446                
                
  22039050.400   115816169.94408  22039048.640    90246432.58548                
                
  22611576.160   118824780.95308  22611579.580    92590822.72049  22611579.440  
  88732848.90808
  22813014.580   121734592.95108  22813022.460    94682466.40906                
                
  19655883.400   105219512.39209  19655883.620    81837437.80108                
                
  20438845.600   109449117.10809  20438845.480    85127103.45208                
                
  22245285.880   118788585.52105  22245287.520    92391128.07105                
                
  20862543.760   111209267.03209  20862546.260    86496143.07407                
                
  22976402.680   122779028.20008  22976406.220    95494867.85506                
                
  22729463.360   121587410.59008                                                
                
  22830109.120   122082859.95108  22830115.580    94953394.18406                
                
 21 10 14 12 04 55.0000000  0 18G03G04G08G16G22G26G27G29G31G32R02R03
                                R04R13R14R15R23R24
  23166032.380   121738316.23707  23166034.300    94861034.30648  23166034.580  
  90908528.00708
  23875146.140   125464756.17608  23875146.120    97764755.73146  23875149.000  
  93691233.78408
  25044759.920   131611094.68208  25044766.600   102554114.88248  25044767.180  
  98281018.83107
  20594292.680   108223878.07609  20594291.040    84330318.21948                
                
  23338944.800   122647007.99208  23338942.820    95569104.77546                
                
  20605666.060   108283696.73009  20605667.340    84376959.11949  20605666.060  
  80861251.60609
  22817975.020   119909306.62808  22817979.020    93435861.13248  22817979.620  
  89542689.22408
  24866635.360   130675259.87507  24866633.980   101824977.46445                
                
  22039881.400   115820536.80708  22039879.620    90249835.35748                
                
  22614365.660   118839439.94008  22614369.120    92602245.31148  22614368.980  
  88743795.54108
  22817111.080   121756452.63008  22817118.960    94699468.39506                
                
  19657802.660   105229786.14309  19657802.860    81845428.50908                
                
  20436989.060   109439175.44509  20436988.980    85119371.07008                
                
  22247196.840   118798789.91105  22247198.480    92399064.85405                
                
  20862927.820   111211314.44609  20862930.360    86497735.53108                
                
  22975122.820   122772189.14008  22975126.320    95489548.63106                
                
  22728242.860   121580881.95208                                                
                
  22827423.400   122068498.56308  22827429.880    94942224.27406                
                
 21 10 14 12 05  0.0000000  0 18G03G04G08G16G22G26G27G29G31G32R02R03
                                R04R13R14R15R23R24
  23166420.260   121740354.54707  23166422.200    94862622.54247  23166422.460  
  90910050.11608
  23871980.920   125448122.79607  23871980.880    97751794.60947  23871983.760  
  93678812.75307
  25041238.240   131592587.94207  25041244.900   102539693.96248  25041245.480  
  98267198.81207
  20593472.000   108219565.31509  20593470.320    84326957.57648                
                
  23340086.660   122653008.57008  23340084.700    95573780.48347                
                
  20607066.840   108291057.71909  20607068.100    84382694.89849  20607066.820  
  80866748.45409
  22814615.200   119891650.77308  22814619.160    93422103.29248  22814619.740  
  89529504.68308
  24868994.020   130687654.60407  24868992.620   101834635.65846                
                
  22040712.620   115824904.77708  22040710.800    90253238.91048                
                
  22617156.800   118854107.32708  22617160.260    92613674.37048  22617160.140  
  88754748.44008
  22821208.120   121778315.28508  22821216.000    94716472.62307                
                
  19659725.500   105240079.08709  19659725.680    81853434.07208                
                
  20435136.080   109429252.76009  20435136.000    85111653.38008                
                
  22249107.200   118808990.88605  22249108.820    92406998.89005                
                
  20863312.420   111213364.70009  20863314.980    86499330.13608                
                
  22973843.940   122765355.19308  22973847.340    95484233.31406                
                
  22727025.100   121574367.69808                                                
                
  22824738.340   122054140.38108  22824744.740    94931056.78207                
                
 21 10 14 12 05  5.0000000  0 18G03G04G08G16G22G26G27G29G31G32R02R03
                                R04R13R14R15R23R24
  23166810.440   121742405.05108  23166812.400    94864220.36648  23166812.660  
  90911581.31908
  23868816.000   125431491.17107  23868815.960    97738834.95246  23868818.860  
  93666393.04107
  25037715.920   131574077.90208  25037722.600   102525270.55848  25037723.160  
  98253376.33907
  20592653.760   108215265.44009  20592652.120    84323607.07748                
                
  23341229.900   122659016.38108  23341227.980    95578461.92747                
                
  20608468.980   108298425.94309  20608470.240    84388436.42349  20608468.940  
  80872250.70309
  22811255.980   119873998.04208  22811259.940    93408347.99348  22811260.460  
  89516322.49008
  24871354.520   130700059.08407  24871353.180   101844301.53145                
                
  22041544.020   115829273.69809  22041542.180    90256643.31148                
                
  22619949.480   118868782.91508  22619952.980    92625109.92248  22619952.840  
  88765707.46808
  22825305.620   121800180.31108  22825313.520    94733478.79706                
                
  19661651.880   105250390.94709  19661652.040    81861454.44508                
                
  20433286.640   109419349.02509  20433286.560    85103950.51108                
                
  22251016.820   118819188.39605  22251018.460    92414930.32805                
                
  20863697.500   111215417.54209  20863700.100    86500926.83508                
                
  22972566.000   122758526.39208  22972569.300    95478922.08206                
                
  22725809.960   121567867.64708                                                
                
  22822053.820   122039785.30308  22822060.180    94919891.80406                
                
 21 10 14 12 05 10.0000000  0 18G03G04G08G16G22G26G27G29G31G32R02R03
                                R04R13R14R15R23R24
  23167203.140   121744468.70608  23167205.100    94865828.40348  23167205.380  
  90913122.35008
  23865651.600   125414862.25207  23865651.520    97725877.35147  23865654.480  
  93653975.35408
  25034193.160   131555565.43108  25034199.820   102510845.21448  25034200.360  
  98239552.04207
  20591838.140   108210979.42809  20591836.520    84320267.32748                
                
  23342374.720   122665032.37508  23342372.780    95583149.71047                
                
  20609872.680   108305802.35809  20609873.940    84394184.27949  20609872.620  
  80877759.06709
  22807897.520   119856349.43708  22807901.500    93394595.85548  22807901.980  
  89503143.35608
  24873717.040   130712474.26307  24873715.720   101853975.69245                
                
  22042375.780   115833644.57309  22042373.940    90260049.19048                
                
  22622743.900   118883467.69108  22622747.420    92636552.58448  22622747.260  
  88776673.34408
  22829403.780   121822048.83308  22829411.660    94750487.64006                
                
  19663582.020   105260722.80509  19663582.120    81869490.32208                
                
  20431440.900   109409465.11509  20431440.800    85096263.02808                
                
  22252926.040   118829383.27405  22252927.580    92422859.67305                
                
  20864083.300   111217474.12409  20864085.920    86502526.40508                
                
  22971289.140   122751703.64508  22971292.400    95473615.52906                
                
  22724597.740   121561382.87908                                                
                
  22819370.080   122025434.43008  22819376.420    94908730.07507                
                
 21 10 14 12 05 15.0000000  0 18G03G04G08G16G22G26G27G29G31G32R02R03
                                R04R13R14R15R23R24
  23167598.380   121746545.72207  23167600.320    94867446.86347  23167600.640  
  90914673.36708
  23862487.780   125398236.36107  23862487.740    97712922.12746  23862490.660  
  93641559.90208
  25030670.000   131537050.97408  25030676.660   102496418.34048  25030677.200  
  98225726.27007
  20591025.240   108206707.53109  20591023.600    84316938.58848                
                
  23343521.100   122671056.75308  23343519.220    95587844.02647                
                
  20611277.980   108313187.18509  20611279.240    84399938.70849  20611277.900  
  80883273.71309
  22804539.920   119838705.19508  22804543.880    93380847.13948  22804544.380  
  89489967.50208
  24876081.640   130724900.40107  24876080.260   101863658.41045                
                
  22043207.980   115838017.65908  22043206.120    90263456.79847                
                
  22625540.140   118898161.86408  22625543.680    92648002.57848  22625543.480  
  88787646.24008
  22833502.600   121843921.01008  22833510.480    94767499.34806                
                
  19665515.900   105271074.61509  19665515.940    81877541.74008                
                
  20429598.900   109399601.30009  20429598.800    85088591.18308                
                
  22254834.820   118839575.74505  22254836.240    92430787.17205                
                
  20864469.840   111219534.57609  20864472.440    86504128.99107                
                
  22970013.460   122744887.11608  22970016.680    95468313.83106                
                
  22723388.440   121554913.51708                                                
                
  22816687.220   122011088.06308  22816693.560    94897571.84106                
                
 21 10 14 12 05 20.0000000  0 18G03G04G08G16G22G26G27G29G31G32R02R03
                                R04R13R14R15R23R24
  23167996.120   121748635.94708  23167998.080    94869075.59348  23167998.400  
  90916234.23908
  23859324.480   125381613.22507  23859324.440    97699969.03546  23859327.380  
  93629146.52908
  25027146.400   131518534.17608  25027153.060   102481989.61348  25027153.620  
  98211898.72608
  20590214.960   108202449.52809  20590213.340    84313620.66248                
                
  23344669.060   122677089.33108  23344667.160    95592544.71047                
                
  20612684.860   108320580.23209  20612686.080    84405699.52249  20612684.760  
  80888794.50609
  22801183.120   119821065.15308  22801187.060    93367101.67348  22801187.540  
  89476794.76708
  24878448.240   130737337.19107  24878446.900   101873349.38945                
                
  22044040.520   115842392.68908  22044038.660    90266865.91048                
                
  22628338.100   118912865.21408  22628341.680    92659459.71248  22628341.460  
  88798625.99808
  22837602.080   121865796.65808  22837609.940    94784513.73706                
                
  19667453.480   105281446.39709  19667453.480    81885608.66308                
                
  20427760.640   109389757.36709  20427760.500    85080934.77508                
                
  22256743.100   118849765.70705  22256744.440    92438712.68105                
                
  20864857.080   111221598.66309  20864859.660    86505734.38808                
                
  22968738.920   122738076.67808  22968742.100    95463016.85006                
                
  22722181.960   121548459.49108                                                
                
  22814005.160   121996745.97908  22814011.500    94886416.91907                
                
 21 10 14 12 05 25.0000000  0 18G03G04G08G16G22G26G27G29G31G32R02R03
                                R04R13R14R15R23R24
  23168396.200   121750738.44708  23168398.180    94870713.88948  23168398.480  
  90917804.28808
  23856161.580   125364992.03407  23856161.540    97687017.43546  23856164.480  
  93616734.60108
  25023622.220   131500014.24608  25023628.860   102467558.43348  25023629.400  
  98198068.86907
  20589407.180   108198204.56809  20589405.540    84310312.88148                
                
  23345818.400   122683129.24508  23345816.500    95597251.11147                
                
  20614093.100   108327980.59609  20614094.320    84411466.02749  20614093.020  
  80894320.75809
  22797826.920   119803428.39208  22797830.860    93353358.75548  22797831.320  
  89463624.50708
  24880816.740   130749783.85607  24880815.300   101883048.11344                
                
  22044873.320   115846768.93509  22044871.460    90270275.94548                
                
  22631137.660   118927576.89009  22631141.240    92670923.31349  22631141.020  
  88809611.96708
  22841702.060   121887674.90708  22841709.860    94801530.14906                
                
  19669394.620   105291837.18209  19669394.540    81893690.36208                
                
  20425925.920   109379932.49509  20425925.740    85073293.19708                
                
  22258650.680   118859952.25205  22258652.000    92446635.54105                
                
  20865244.820   111223665.51409  20865247.360    86507341.92008                
                
  22967465.420   122731271.49408  22967468.540    95457723.92606                
                
  22720978.140   121542019.87108                                                
                
  22811323.700   121982407.24308  22811330.020    94875264.59507                
                
 21 10 14 12 05 30.0000000  0 18G03G04G08G16G22G26G27G29G31G32R02R03
                                R04R13R14R15R23R24
  23168799.020   121752855.22808  23168800.980    94872363.29648  23168801.260  
  90919384.98508
  23852999.420   125348374.73207  23852999.340    97674068.86546  23853002.340  
  93604325.57607
  25020097.760   131481493.01107  25020104.420   102453126.25247  25020104.960  
  98184238.04907
  20588602.240   108193974.62509  20588600.600    84307016.79248                
                
  23346969.500   122689178.36708  23346967.600    95601964.66447                
                
  20615503.140   108335390.25109  20615504.320    84417239.76049  20615503.040  
  80899853.93409
  22794471.740   119785796.94108  22794475.660    93339619.96548  22794476.100  
  89450458.20408
  24883187.420   130762242.16007  24883185.900   101892755.85045                
                
  22045706.700   115851148.22209  22045704.820    90273688.35448                
                
  22633939.140   118942298.81508  22633942.760    92682394.89548  22633942.540  
  88820605.58208
  22845802.840   121909557.33508  22845810.600    94818549.79706                
                
  19671339.680   105302248.88209  19671339.540    81901788.31708                
                
  20424095.120   109370128.73509  20424094.920    85065668.02208                
                
  22260557.960   118870137.27905  22260559.280    92454557.19805                
                
  20865633.420   111225737.01309  20865635.960    86508953.06908                
                
  22966193.280   122724473.43008  22966196.360    95452436.52806                
                
  22719777.360   121535596.65508                                                
                
  22808643.220   121968073.87208  22808649.560    94864116.44307                
                
 21 10 14 12 05 35.0000000  0 18G03G04G08G16G22G26G27G29G31G32R02R03
                                R04R13R14R15R23R24
  23169204.040   121754983.71208  23169206.040    94874021.90148  23169206.260  
  90920974.43708
  23849837.500   125331758.81707  23849837.420    97661121.46446  23849840.440  
  93591917.60208
  25016572.600   131462968.10907  25016579.300   102438691.28247  25016579.840  
  98170404.47207
  20587799.660   108189757.15909  20587798.040    84303730.51948                
                
  23348121.880   122695234.23808  23348120.040    95606683.56647                
                
  20616914.460   108342806.63309  20616915.640    84423018.82249  20616914.360  
  80905392.15109
  22791117.080   119768168.29708  22791121.020    93325883.44648  22791121.420  
  89437293.98408
  24885559.960   130774709.75807  24885558.340   101902470.91944                
                
  22046540.160   115855528.03609  22046538.320    90277101.25848                
                
  22636742.080   118957028.47408  22636745.740    92693872.58949  22636745.540  
  88831604.98208
  22849904.020   121931442.05508  22849911.780    94835571.30506                
                
  19673288.160   105312679.03909  19673287.980    81909900.71208                
                
  20422267.840   109360343.49009  20422267.560    85058057.32108                
                
  22262464.600   118880318.42505  22262465.900    92462475.93305                
                
  20866022.440   111227810.70109  20866024.940    86510565.98907                
                
  22964921.960   122717679.96108  22964925.040    95447152.79906                
                
  22718579.180   121529187.37408                                                
                
  22805963.320   121953743.43308  22805969.680    94852970.64106                
                
 21 10 14 12 05 40.0000000  0 18G03G04G08G16G22G26G27G29G31G32R02R03
                                R04R13R14R15R23R24
  23169611.520   121757125.07308  23169613.520    94875690.45648  23169613.720  
  90922573.50008
  23846676.080   125315145.48708  23846675.960    97648175.97646  23846679.040  
  93579511.55008
  25013046.960   131444440.70407  25013053.700   102424254.25747  25013054.220  
  98156569.01107
  20586999.700   108185553.31009  20586998.060    84300454.76548                
                
  23349275.780   122701297.98708  23349273.960    95611408.51447                
                
  20618327.260   108350230.92109  20618328.420    84428803.94549  20618327.160  
  80910936.26409
  22787763.200   119750543.63808  22787767.120    93312149.93648  22787767.500  
  89424132.74408
  24887934.440   130787187.76907  24887932.700   101912194.04245                
                
  22047373.940   115859909.55109  22047372.120    90280515.38848                
                
  22639546.740   118971767.02209  22639550.400    92705357.11849  22639550.240  
  88842611.02308
  22854005.820   121953329.96608  22854013.540    94852595.20506                
                
  19675240.300   105323128.77509  19675240.080    81918028.24708                
                
  20420444.180   109350577.95109  20420443.860    85050461.86708                
                
  22264370.660   118890496.95405  22264372.000    92470392.54005                
                
  20866412.100   111229887.67509  20866414.520    86512181.37807                
                
  22963651.680   122710892.18908  22963654.800    95441873.41206                
                
  22717383.800   121522793.19908                                                
                
  22803284.240   121939417.11308  22803290.580    94841827.95007                
                
 21 10 14 12 05 45.0000000  0 19G03G04G08G16G22G26G27G29G31G32R02R03
                                R04R05R13R14R15R23R24
  23170021.640   121759280.19208  23170023.620    94877369.79248  23170023.840  
  90924182.83008
  23843515.320   125298535.60708  23843515.240    97635233.25946  23843518.300  
  93567108.08208
  25009520.980   131425911.57507  25009527.800   102409815.97747  25009528.300  
  98142732.29407
  20586202.480   108181363.98209  20586200.840    84297190.38748                
                
  23350431.360   122707370.50908  23350429.560    95616140.36646                
                
  20619741.720   108357663.97409  20619742.880    84434595.96949  20619741.640  
  80916486.93009
  22784410.260   119732923.85108  22784414.160    93298420.28948  22784414.520  
  89410975.13808
  24890311.060   130799677.07007  24890309.320   101921925.98544                
                
  22048208.220   115864293.65909  22048206.420    90283931.61348                
                
  22642353.260   118986515.34509  22642356.940    92716849.33249  22642356.760  
  88853624.35408
  22858108.360   121975221.88908  22858116.060    94869622.29606                
                
  19677196.240   105333598.91709  19677195.980    81926171.71108                
                
  20418624.380   109340832.94909  20418624.020    85042882.44708                
                
  24431485.480   130600288.77207                                                
                
  22266276.400   118900673.47505  22266277.740    92478307.64105                
                
  20866802.560   111231968.90009  20866804.900    86513800.14407                
                
  22962382.700   122704111.14508  22962385.860    95436599.31206                
                
  22716191.460   121516414.96808                                                
                
  22800606.040   121925095.65708  22800612.380    94830689.11706                
                
 21 10 14 12 05 50.0000000  0 19G03G04G08G16G22G26G27G29G31G32R02R03
                                R04R05R13R14R15R23R24
  23170433.940   121761446.87708  23170435.940    94879058.08348  23170436.160  
  90925800.81108
  23840354.780   125281927.01008  23840354.720    97622291.46646  23840357.800  
  93554705.56808
  25005994.300   131407378.66007  25006001.140   102395374.68147  25006001.640  
  98128892.74007
  20585407.600   108177186.99108  20585405.940    84293935.55048                
                
  23351588.180   122713449.56808  23351586.360    95620877.25247                
                
  20621157.420   108365103.61709  20621158.580    84440393.05949  20621157.380  
  80922042.50609
  22781057.800   119715306.76008  22781061.680    93284692.67748  22781062.060  
  89397819.55908
  24892689.440   130812175.51007  24892687.660   101931665.00745                
                
  22049042.560   115868678.17109  22049040.800    90287348.07548                
                
  22645161.220   119001271.21109  22645164.900    92728347.35549  22645164.760  
  88864643.32908
  22862211.240   121997115.56008  22862218.900    94886650.68606                
                
  19679155.580   105344087.29509  19679155.280    81934329.30108                
                
  20416808.020   109331106.40209  20416807.640    85035317.32008                
                
  24427686.580   130579980.84107                                                
                
  22268181.320   118910845.69805  22268182.660    92486219.34505                
                
  20867193.380   111234052.13409  20867195.660    86515420.40207                
                
  22961114.560   122697334.62908  22961117.740    95431328.67606                
                
  22715001.700   121510050.56808                                                
                
  22797928.360   121910777.15808  22797934.700    94819552.51706                
                
 21 10 14 12 05 55.0000000  0 19G03G04G08G16G22G26G27G29G31G32R02R03
                                R04R05R13R14R15R23R24
  23170848.480   121763625.13708  23170850.460    94880755.46348  23170850.720  
  90927427.42408
  23837194.520   125265319.74508  23837194.460    97609350.79146  23837197.560  
  93542304.03108
  25002466.880   131388841.91107  25002473.800   102380930.46147  25002474.260  
  98115050.30007
  20584615.080   108173022.36708  20584613.440    84290690.43248                
                
  23352746.220   122719535.19008  23352744.400    95625619.31847                
                
  20622574.360   108372549.83709  20622575.560    84446195.35749  20622574.360  
  80927602.99709
  22777705.880   119697692.38808  22777709.740    93270967.25848  22777710.120  
  89384666.00208
  24895069.560   130824683.03007  24895067.760   101941411.18245                
                
  22049877.000   115873063.12509  22049875.240    90290764.97248                
                
  22647970.620   119016034.67909  22647974.340    92739851.37249  22647974.160  
  88875667.97108
  22866314.460   122019010.95808  22866322.080    94903680.49106                
                
  19681118.320   105354593.86209  19681118.000    81942501.11308                
                
  20414995.120   109321398.20909  20414994.720    85027766.54108                
                
  24423888.760   130559676.90307                 101546424.49513                
                
  22270085.480   118921013.76105  22270086.800    92494127.87105                
                
  20867584.600   111236137.40209  20867586.840    86517042.32907                
                
  22959847.240   122690562.45308  22959850.500    95426061.49206                
                
  22713814.460   121503699.88008                                                
                
  22795251.200   121896461.43708  22795257.540    94808418.15306                
                
 21 10 14 12 06  0.0000000  0 19G03G04G08G16G22G26G27G29G31G32R02R03
                                R04R05R13R14R15R23R24
  23171265.440   121765816.31608  23171267.420    94882462.85148  23171267.720  
  90929063.69408
  23834034.780   125248715.15408  23834034.700    97596412.14346  23834037.840  
  93529904.51008
  24998939.020   131370302.67907  24998945.960   102366484.23947  24998946.400  
  98101206.02407
  20583825.180   108168871.43109  20583823.540    84287455.92348                
                
  23353905.800   122725628.71708  23353903.920    95630367.48546                
                
  20623992.820   108380003.98109  20623994.000    84452003.77349  20623992.840  
  80933169.41509
  22774354.740   119680082.13108  22774358.580    93257244.99948  22774358.940  
  89371515.52408
  24897451.620   130837200.98707  24897449.820   101951165.43044                
                
  22050711.760   115877449.87609  22050710.020    90294183.20548                
                
  22650781.720   119030807.05209  22650785.460    92751362.28549  22650785.280  
  88886699.27008
  22870418.260   122040909.54908  22870425.820    94920712.72506                
                
  19683084.700   105365120.05609  19683084.360    81950688.12808                
                
  20413185.900   109311709.86509  20413185.480    85020231.15208                
                
  24420091.500   130539378.42808  24420088.660                                  
                
  22271989.140   118931179.16705  22271990.440    92502034.28605                
                
  20867976.400   111238225.99909  20867978.620    86518666.77507                
                
  22958581.000   122683796.17608  22958584.320    95420798.84106                
                
  22712630.080   121497364.44408                                                
                
  22792574.880   121882149.80408  22792581.180    94797286.90107                
                
 21 10 14 12 06  5.0000000  0 19G03G04G08G16G22G26G27G29G31G32R02R03
                                R04R05R13R14R15R23R24
  23171685.060   121768021.42108  23171687.040    94884181.09848  23171687.400  
  90930710.35508
  23830875.740   125232114.29008  23830875.680    97583476.39946  23830878.820  
  93517507.75908
  24995410.860   131351762.07308  24995417.860   102352036.95448  24995418.300  
  98087360.71307
  20583038.080   108164735.17109  20583036.420    84284232.85648                
                
  23355067.040   122731731.10308  23355065.160    95635122.57547                
                
  20625412.960   108387467.06409  20625414.160    84457819.15249  20625413.040  
  80938742.49309
  22771004.580   119662477.01308  22771008.400    93243526.74448  22771008.740  
  89358368.86908
  24899835.900   130849730.39008  24899834.040   101960928.59645                
                
  22051547.080   115881839.43909  22051545.340    90297603.63148                
                
  22653594.720   119045589.35909  22653598.460    92762880.93549  22653598.260  
  88897737.98208
  22874522.820   122062812.27808  22874530.360    94937748.17906                
                
  19685054.920   105375666.80309  19685054.560    81958891.14308                
                
  20411380.580   109302042.40709  20411380.160    85012712.00808                
                
  24416295.120   130519086.24308  24416292.620   101514837.74614                
                
  22273892.540   118941342.92805  22273893.800    92509939.42505                
                
  20868369.020   111240319.04209  20868371.260    86520294.69108                
                
  22957316.000   122677036.57608  22957319.340    95415541.39506                
                
  22711448.780   121491045.27208                                                
                
  22789899.520   121867843.43108  22789905.840    94786159.75707                
                
 21 10 14 12 06 10.0000000  0 19G03G04G08G16G22G26G27G29G31G32R02R03
                                R04R05R13R14R15R23R24
  23172107.240   121770239.84208  23172109.180    94885909.72348  23172109.620  
  90932366.96508
  23827717.280   125215516.52008  23827717.220    97570543.04346  23827720.380  
  93505113.32908
  24991882.380   131333219.48907  24991889.360   102337588.14247  24991889.820  
  98073513.93807
  20582253.660   108160613.02409  20582251.980    84281020.78348                
                
  23356229.860   122737841.81108  23356228.000    95639884.14747                
                
  20626834.680   108394938.45609  20626835.900    84463641.00349  20626834.820  
  80944321.78209
  22767655.240   119644876.41208  22767659.100    93229812.01248  22767659.400  
  89345225.60008
  24902222.240   130862270.61207  24902220.440   101970700.18445                
                
  22052382.840   115886231.27509  22052381.080    90301025.83048                
                
  22656409.500   119060380.98309  22656413.220    92774406.85349  22656413.060  
  88908783.65808
  22878627.980   122084718.54508  22878635.540    94954786.37206                
                
  19687028.900   105386233.62209  19687028.520    81967109.75908                
                
  20409579.040   109292395.16209  20409578.600    85005208.58008                
                
  24412500.120   130498800.04908  24412497.520   101499059.61404                
                
  22275795.480   118951504.31605  22275796.720    92517842.71505                
                
  20868762.360   111242415.80809  20868764.600    86521925.49708                
                
  22956052.200   122670283.32708  22956055.480    95410288.86406                
                
  22710270.400   121484741.71708                                                
                
  22787225.020   121853541.82408  22787231.380    94775036.32907                
                
 21 10 14 12 06 15.0000000  0 19G03G04G08G16G22G26G27G29G31G32R02R03
                                R04R05R13R14R15R23R24
  23172532.060   121772472.17808  23172533.960    94887649.20248  23172534.460  
  90934033.95308
  23824559.520   125198922.49808  23824559.500    97557612.63647  23824562.660  
  93492721.68108
  24988353.620   131314675.54107  24988360.620   102323138.27747  24988361.060  
  98059666.12808
  20581472.020   108156505.53908  20581470.320    84277820.15748                
                
  23357394.380   122743961.38108  23357392.560    95644652.63147                
                
  20628258.100   108402418.76509  20628259.340    84469469.81849  20628258.280  
  80949907.72609
  22764306.920   119627281.00308  22764310.760    93216101.33948  22764311.060  
  89332086.19508
  24904610.700   130874822.26408  24904608.940   101980480.70344                
                
  22053219.120   115890625.92709  22053217.340    90304450.24148                
                
  22659226.160   119075182.52309  22659229.880    92785940.50549  22659229.740  
  88919836.74308
  22882733.940   122106628.86808  22882741.500    94971827.75106                
                
  19689006.720   105396820.95309  19689006.300    81975344.35608                
                
  20407781.360   109282768.85209  20407780.960    84997721.46708                
                
  24408706.400   130478520.26808  24408703.880   101483286.49704                
                
  22277698.100   118961663.87505  22277699.320    92525744.60405                
                
  20869156.480   111244516.88209  20869158.760    86523559.68508                
                
  22954789.660   122663536.91508  22954792.880    95405041.68106                
                
  22709095.060   121478454.46508                                                
                
  22784551.540   121839245.48508  22784557.900    94763917.01507                
                
 21 10 14 12 06 20.0000000  0 19G03G04G08G16G22G26G27G29G31G32R02R03
                                R04R05R13R14R15R23R24
  23172959.100   121774716.14408  23172960.960    94889397.76748  23172961.500  
  90935709.63608
  23821402.060   125182329.93907  23821402.040    97544683.40446  23821405.220  
  93480331.12508
  24984824.160   131296127.84307  24984831.140   102308685.51047  24984831.600  
  98045815.53308
  20580692.760   108152410.49509  20580691.060    84274629.24448                
                
  23358560.180   122750087.59108  23358558.420    95649426.31647                
                
  20629682.800   108409905.71609  20629684.040    84475303.83249  20629683.020  
  80955498.62309
  22760959.160   119609688.48208  22760962.960    93202392.93248  22760963.260  
  89318948.95808
  24907000.960   130887383.05007  24906999.120   101990268.37144                
                
  22054055.520   115895021.10209  22054053.700    90307875.08347                
                
  22662044.260   119089991.67009  22662047.980    92797480.11049  22662047.860  
  88930895.48808
  22886840.200   122128540.69308  22886847.740    94988870.31706                
                
  19690987.940   105407426.49109  19690987.500    81983593.12208                
                
  20405987.180   109273161.10809  20405986.800    84990248.79508                
                
  24404913.560   130458244.72008  24404910.580   101467516.67204                
                
  22279599.920   118971819.31105  22279601.140    92533643.29405                
                
  20869551.040   111246620.09209  20869553.300    86525195.53907                
                
  22953527.940   122656794.98108  22953531.120    95399798.00506                
                
  22707922.320   121472181.23908                                                
                
  22781878.620   121824952.27708  22781884.980    94752800.12306                
                
 21 10 14 12 06 25.0000000  0 19G03G04G08G16G22G26G27G29G31G32R02R03
                                R04R05R13R14R15R23R24
  23173388.700   121776973.59708  23173390.540    94891156.80948  23173391.100  
  90937395.39308
  23818245.240   125165740.73008  23818245.200    97531756.75046  23818248.400  
  93467943.08608
  24981294.360   131277578.41408  24981301.360   102294231.36847  24981301.820  
  98031963.63008
  20579916.200   108148329.76509  20579914.520    84271449.45948                
                
  23359727.560   122756222.25608  23359725.860    95654206.56247                
                
  20631109.120   108417401.13909  20631110.380    84481144.42549  20631109.380  
  80961095.85809
  22757612.280   119592100.73208  22757616.100    93188688.22848  22757616.380  
  89305815.29808
  24909393.300   130899954.83908  24909391.420   102000064.59344                
                
  22054892.380   115899418.72809  22054890.520    90311301.80348                
                
  22664864.200   119104810.31109  22664867.900    92809027.09549  22664867.780  
  88941961.34608
  22890947.220   122150456.42908  22890954.700    95005915.91006                
                
  19692972.960   105418052.23609  19692972.460    81991857.58708                
                
  20404196.820   109263573.88609  20404196.460    84982792.07208                
                
  24401121.680   130437975.21608  24401118.640   101451751.52504                
                
  22281501.360   118981972.55105  22281502.540    92541540.27405                
                
  20869946.300   111248727.21909  20869948.580    86526834.42907                
                
  22952267.460   122650059.45408  22952270.540    95394559.28506                
                
  22706752.580   121465923.96408                                                
                
  22779206.560   121810663.97808  22779213.000    94741687.05706                
                
 21 10 14 12 06 30.0000000  0 19G03G04G08G16G22G26G27G29G31G32R02R03
                                R04R05R13R14R15R23R24
  23173820.760   121779243.94308  23173822.560    94892925.86348  23173823.120  
  90939090.77908
  23815088.940   125149154.29307  23815088.880    97518832.20846  23815092.100  
  93455557.10608
  24977764.120   131259026.63607  24977771.100   102279775.34947  24977771.580  
  98018109.98208
  20579142.260   108144262.72208  20579140.560    84268280.29648                
                
  23360896.440   122762364.78308  23360894.760    95658992.89147                
                
  20632536.920   108424904.42809  20632538.200    84486991.10649  20632537.240  
  80966698.96609
  22754266.220   119574517.22108  22754270.020    93174986.76848  22754270.320  
  89292684.77908
  24911787.600   130912536.97107  24911785.760   102009868.81444                
                
  22055729.600   115903818.20709  22055727.680    90314729.92648                
                
  22667685.820   119119637.86108  22667689.520    92820580.96448  22667689.420  
  88953033.83008
  22895054.820   122172375.31908  22895062.240    95022963.92306                
                
  19694961.600   105428697.49609  19694961.060    82000137.18308                
                
  20402410.220   109254006.58009  20402409.780    84975350.79408                
                
  24397330.800   130417711.14007  24397327.780   101435990.59504                
                
  22283402.220   118992123.12005  22283403.420    92549435.12805                
                
  20870342.200   111250837.65209  20870344.460    86528475.83808                
                
  22951008.060   122643329.66908  22951011.060    95389324.96806                
                
  22705585.680   121459681.90508                                                
                
  22776535.340   121796379.91908  22776541.820    94730577.23207                
                
 21 10 14 12 06 35.0000000  0 19G03G04G08G16G22G26G27G29G31G32R02R03
                                R04R05R13R14R15R23R24
  23174255.140   121781526.69408  23174256.980    94894704.65248  23174257.500  
  90940795.41308
  23811933.080   125132570.10208  23811933.000    97505909.52046  23811936.240  
  93443172.81808
  24974233.300   131240471.97507  24974240.300   102265317.16848  24974240.800  
  98004254.18607
  20578370.840   108140208.84609  20578369.140    84265121.46848                
                
  23362066.740   122768514.67208  23362065.100    95663785.03747                
                
  20633966.120   108432415.09909  20633967.440    84492843.61349  20633966.500  
  80972307.58509
  22750920.900   119556937.43708  22750924.660    93161288.29748  22750924.960  
  89279557.04208
  24914183.800   130925128.98907  24914181.880   102019680.84645                
                
  22056567.060   115908219.02109  22056565.100    90318159.16648                
                
  22670509.020   119134473.76209  22670512.740    92832141.42349  22670512.620  
  88964112.58508
  22899162.840   122194296.64008  22899170.280    95040013.89306                
                
  19696953.800   105439361.74609  19696953.240    82008431.63508                
                
  20400627.240   109244458.69609  20400626.780    84967924.69308                
                
  24393540.820   130397451.98708  24393538.020   101420233.57203                
                
  22285302.520   119002270.42905  22285303.700    92557327.52905                
                
  20870738.620   111252950.90109  20870740.900    86530119.52207                
                
  22949749.660   122636605.24408  22949752.660    95384094.92606                
                
  22704421.560   121453454.67208                                                
                
  22773864.860   121782099.84908  22773871.440    94719470.60507                
                
 21 10 14 12 06 40.0000000  0 19G03G04G08G16G22G26G27G29G31G32R02R03
                                R04R05R13R14R15R23R24
  23174691.720   121783820.88208  23174693.560    94896492.32148  23174694.060  
  90942508.58208
  23808777.500   125115987.27608  23808777.400    97492987.82946  23808780.640  
  93430789.55008
  24970701.800   131221913.53407  24970708.760   102250856.01248  24970709.300  
  97990395.55908
  20577601.760   108136167.19009  20577600.040    84261972.13448                
                
  23363238.260   122774670.96008  23363236.660    95668582.13446                
                
  20635396.560   108439932.18509  20635397.920    84498701.08749  20635396.980  
  80977921.00009
  22747576.080   119539360.44508  22747579.820    93147591.96848  22747580.120  
  89266431.40508
  24916581.700   130937729.92307  24916579.700   102029499.78144                
                
  22057404.580   115912620.21809  22057402.600    90321588.66648                
                
  22673333.640   119149317.11608  22673337.340    92843707.66149  22673337.240  
  88975196.88308
  22903271.160   122216219.56108  22903278.640    95057065.06506                
                
  19698949.340   105450044.01209  19698948.800    82016740.05008                
                
  20398847.720   109234929.32409  20398847.220    84960512.95308                
                
  24389751.680   130377197.08108  24389749.300   101404479.76104                
                
  22287202.080   119012413.47405  22287203.140    92565216.56404                
                
  20871135.400   111255066.01209  20871137.660    86531764.61207                
                
  22948492.060   122629885.14408  22948495.080    95378868.20506                
                
  22703260.060   121447241.31808                                                
                
  22771194.980   121767822.71008  22771201.520    94708366.20106                
                
 21 10 14 12 06 45.0000000  0 19G03G04G08G16G22G26G27G29G31G32R02R03
                                R04R05R13R14R15R23R24
  23175130.600   121786127.19908  23175132.420    94898289.44948  23175132.940  
  90944230.83508
  23805622.300   125099406.55108  23805622.200    97480067.79646  23805625.440  
  93418407.84808
  24967169.760   131203352.13407  24967176.700   102236392.55247  24967177.240  
  97976534.73207
  20576835.120   108132138.51709  20576833.400    84258832.91548                
                
  23364411.140   122780834.38008  23364409.580    95673384.78546                
                
  20636828.360   108447456.42609  20636829.740    84504564.13049  20636828.820  
  80983539.75909
  22744231.920   119521787.00208  22744235.640    93133898.40948  22744235.960  
  89253308.40508
  24918981.420   130950340.50807  24918979.360   102039326.22944                
                
  22058242.340   115917022.55109  22058240.320    90325019.05748                
                
  22676159.800   119164168.61409  22676163.500    92855280.23649  22676163.420  
  88986287.26008
  22907379.900   122238144.71908  22907387.460    95074117.96906                
                
  19700948.420   105460745.12109  19700947.860    82025063.13208                
                
  20397071.780   109225419.21409  20397071.300    84953116.20308                
                
  24385963.540   130356946.94108  24385961.480   101388729.62504                
                
  22289100.900   119022553.02405  22289101.960    92573102.89105                
                
  20871532.680   111257183.73809  20871534.940    86533411.74307                
                
  22947235.380   122623170.11108  22947238.480    95373645.44906                
                
  22702101.300   121441042.66108                                                
                
  22768525.760   121753549.37608  22768532.280    94697264.75806                
                
 21 10 14 12 06 50.0000000  0 19G03G04G08G16G22G26G27G29G31G32R02R03
                                R04R05R13R14R15R23R24
  23175572.280   121788448.09307  23175574.080    94900097.93848  23175574.560  
  90945963.95508
  23802467.940   125082830.33808  23802467.880    97467151.27245  23802471.100  
  93406029.50308
  24963637.560   131184790.19007  24963644.480   102221928.67547  24963645.080  
  97962673.51207
  20576071.420   108128125.22008  20576069.700    84255705.67448                
                
  23365585.840   122787007.29708  23365584.260    95678194.84047                
                
  20638261.980   108454990.20009  20638263.380    84510434.61948  20638262.480  
  80989165.62909
  22740888.940   119504219.53108  22740892.640    93120209.49748  22740892.940  
  89240189.88308
  24921383.400   130962963.12707  24921381.460   102049162.04444                
                
  22059080.740   115921428.42209  22059078.720    90328452.20848                
                
  22678987.960   119179030.66308  22678991.680    92866861.04148  22678991.620  
  88997385.52008
  22911489.480   122260074.43808  22911497.080    95091174.42606                
                
  19702951.460   105471467.38709  19702950.880    82033402.66908                
                
  20395299.880   109215930.70809  20395299.420    84945736.25408                
                
  24382176.700   130336704.24008  24382174.680   101372985.36404                
                
  22290999.500   119032691.41005  22291000.560    92580988.30505                
                
  20871930.900   111259306.40309  20871933.140    86535062.71507                
                
  22945980.120   122616462.48608  22945983.240    95368428.43406                
                
  22700945.700   121434861.03408                                                
                
  22765857.660   121739282.23408  22765864.260    94686168.14806                
                
 21 10 14 12 06 55.0000000  0 19G03G04G08G16G22G26G27G29G31G32R02R03
                                R04R05R13R14R15R23R24
  23176016.480   121790782.30107  23176018.280    94901916.77547  23176018.720  
  90947707.04008
  23799314.240   125066257.41208  23799314.100    97454237.27946  23799317.380  
  93393653.62607
  24960104.980   131166226.28307  24960111.900   102207463.23047  24960112.560  
  97948810.82307
  20575310.400   108124126.08609  20575308.700    84252589.44748                
                
  23366762.100   122793188.48308  23366760.520    95683011.30147                
                
  20639697.180   108462532.26109  20639698.600    84516311.52349  20639697.700  
  80994797.69009
  22737546.840   119486656.78008  22737550.540    93106524.24548  22737550.820  
  89227074.86608
  24923787.480   130975596.57107  24923785.540   102059006.26145                
                
  22059919.600   115925836.64309  22059917.560    90331887.16348                
                
  22681817.900   119193902.01208  22681821.620    92878449.06048  22681821.580  
  89008490.73208
  22915599.780   122282007.84508  22915607.380    95108233.73006                
                
  19704958.200   105482209.55109  19704957.620    82041757.66008                
                
  20393531.820   109206462.59909  20393531.340    84938372.14708                
                
  24378390.960   130316467.33808  24378388.980   101357245.61104                
                
  22292897.720   119042827.48905  22292898.720    92588871.90505                
                
  20872329.860   111261432.90009  20872332.060    86536716.64107                
                
  22944726.000   122609761.19108  22944729.120    95363216.29506                
                
  22699793.080   121428695.32908                                                
                
  22763190.460   121725019.87808  22763197.140    94675075.23706                
                
 21 10 14 12 07  0.0000000  0 19G03G04G08G16G22G26G27G29G31G32R02R03
                                R04R05R13R14R15R23R24
  23176462.820   121793127.70508  23176464.600    94903744.35048  23176464.980  
  90949458.45408
  23796160.740   125049685.65208  23796160.600    97441324.21946  23796163.900  
  93381278.61708
  24956571.680   131147658.50107  24956578.600   102192994.80047  24956579.280  
  97934945.22607
  20574551.680   108120139.00109  20574549.980    84249482.61848                
                
  23367939.520   122799375.80108  23367937.940    95687832.57047                
                
  20641133.540   108470080.50009  20641134.980    84522193.25349  20641134.120  
  81000434.35309
  22734205.260   119469096.69008  22734208.940    93092841.07648  22734209.200  
  89213961.84608
  24926193.200   130988238.67107  24926191.340   102068857.24645                
                
  22060758.500   115930245.05009  22060756.440    90335322.27548                
                
  22684649.200   119208780.54909  22684652.920    92890042.68949  22684652.900  
  89019601.29808
  22919710.260   122303942.26108  22919717.860    95125293.83506                
                
  19706968.260   105492969.42909  19706967.680    82050126.44508                
                
  20391767.160   109197012.81009  20391766.700    84931022.30608                
                
  24374605.980   130296234.54908  24374604.120   101341509.00703                
                
  22294795.080   119052959.20005  22294796.040    92596752.12305                
                
  20872729.100   111263560.96709  20872731.280    86538371.80208                
                
  22943472.620   122603063.92508  22943475.820    95358007.32906                
                
  22698642.980   121422543.35608                                                
                
  22760523.860   121710760.38207  22760530.540    94663984.54807                
                
 21 10 14 12 07  5.0000000  0 19G03G04G08G16G22G26G27G29G31G32R02R03
                                R04R05R13R14R15R23R24
  23176911.420   121795485.21608  23176913.220    94905581.37248  23176913.580  
  90951218.93808
  23793007.640   125033116.05008  23793007.540    97428412.84746  23793010.840  
  93368905.21808
  24953037.800   131129087.68107  24953044.720   102178523.99847  24953045.420  
  97921077.36907
  20573795.420   108116164.88109  20573793.740    84246385.91548                
                
  23369118.280   122805570.16908  23369116.680    95692659.34247                
                
  20642571.260   108477635.81609  20642572.720    84528080.52149  20642571.860  
  81006076.31709
  22730864.360   119451540.22608  22730868.020    93079160.73548  22730868.240  
  89200851.52108
  24928600.740   131000890.39707  24928598.980   102078715.72646                
                
  22061597.620   115934654.60809  22061595.540    90338758.29648                
                
  22687482.040   119223667.18709  22687485.780    92901642.65649  22687485.780  
  89030717.92008
  22923821.220   122325879.13908  22923828.780    95142355.87706                
                
  19708981.780   105503748.02109  19708981.220    82058509.78608                
                
  20390006.100   109187582.37609  20390005.640    84923687.52008                
                
  24370821.900   130276006.60907  24370820.200   101325776.16203                
                
  22296691.760   119063087.36805  22296692.720    92604629.58105                
                
  20873128.820   111265691.54309  20873130.960    86540028.92607                
                
  22942220.220   122596371.69008  22942223.540    95352802.26806                
                
  22697495.660   121416406.09308                                                
                
  22757857.980   121696504.71608  22757864.600    94652896.84706                
                
 21 10 14 12 07 10.0000000  0 19G03G04G08G16G22G26G27G29G31G32R02R03
                                R04R05R13R14R15R23R24
  23177362.660   121797856.23808  23177364.420    94907428.93848  23177364.740  
  90952989.49208
  23789855.200   125016549.95008  23789855.100    97415504.23146  23789858.440  
  93356534.43508
  24949503.640   131110515.31607  24949510.540   102164052.03047  24949511.280  
  97907208.36207
  20573041.900   108112205.09809  20573040.200    84243300.39748                
                
  23370298.660   122811773.02108  23370297.040    95697492.76047                
                
  20644010.560   108485199.60409  20644012.080    84533974.41549  20644011.200  
  81011724.60609
  22727524.380   119433988.71708  22727528.060    93065484.30148  22727528.260  
  89187744.91008
  24931010.300   131013553.09107  24931008.720   102088582.78245                
                
  22062437.220   115939066.71209  22062435.140    90342196.33648                
                
  22690316.680   119238563.30509  22690320.440    92913250.03548  22690320.480  
  89041841.62708
  22927932.820   122347819.54708  22927940.400    95159420.69506                
                
  19710999.080   105514546.72909  19710998.520    82066908.80108                
                
  20388248.920   109178172.62109  20388248.480    84916368.85008                
                
  24367039.020   130255785.06307  24367037.300   101310048.33603                
                
  22298588.000   119073213.33905  22298589.020    92612505.37505                
                
  20873529.260   111267826.04909  20873531.360    86541689.12907                
                
  22940969.000   122589685.84908  22940972.500    95347602.22806                
                
  22696351.320   121410284.86208                                                
                
  22755193.020   121682254.16208  22755199.600    94641813.15106                
                
 21 10 14 12 07 15.0000000  0 19G03G04G08G16G22G26G27G29G31G32R02R03
                                R04R05R13R14R15R23R24
  23177816.520   121800241.27808  23177818.280    94909287.40648  23177818.600  
  90954770.52708
  23786703.560   124999987.93008  23786703.400    97402598.76145  23786706.800  
  93344166.69107
  24945969.260   131091941.94507  24945976.180   102149579.23247  24945976.960  
  97893338.60407
  20572291.200   108108260.17209  20572289.520    84240226.43048                
                
  23371480.720   122817984.79608  23371479.140    95702333.09146                
                
  20645451.580   108492772.36809  20645453.140    84539875.27449  20645452.260  
  81017379.60209
  22724185.500   119416442.76408  22724189.120    93051812.14548  22724189.320  
  89174642.44508
  24933422.080   131026227.31907  24933420.560   102098458.81545                
                
  22063277.380   115943481.87709  22063275.320    90345636.72147                
                
  22693153.240   119253469.43609  22693156.980    92924865.17449  22693157.040  
  89052972.79708
  22932045.160   122369763.75008  22932052.740    95176488.43006                
                
  19713020.200   105525366.06309  19713019.680    82075323.83208                
                
  20386495.700   109168784.12709  20386495.260    84909066.68208                
                
  24363257.400   130235570.36408  24363255.620   101294325.81304                
                
  22300484.020   119083337.78805  22300485.020    92620379.94905                
                
  20873930.540   111269965.02809  20873932.620    86543352.77507                
                
  22939719.120   122583006.99508  22939722.660    95342407.58206                
                
  22695210.100   121404180.34308                                                
                
  22752529.200   121668009.46008  22752535.720    94630733.98906                
                
 21 10 14 12 07 20.0000000  0 19G03G04G08G16G22G26G27G29G31G32R02R03
                                R04R05R13R14R15R23R24
  23178272.860   121802639.36108  23178274.600    94911156.03848  23178274.940  
  90956561.29508
  23783552.500   124983429.04008  23783552.340    97389695.71146  23783555.780  
  93331801.28508
  24942434.520   131073366.53807  24942441.460   102135104.85047  24942442.240  
  97879467.30107
  20571543.140   108104329.16409  20571541.460    84237163.31148                
                
  23372664.300   122824204.55908  23372662.720    95707179.63147                
                
  20646894.120   108500353.15909  20646895.720    84545782.39249  20646894.820  
  81023040.58909
  22720847.480   119398901.40008  22720851.080    93038143.57948  22720851.260  
  89161543.40908
  24935835.900   131038912.06806  24935834.400   102108343.04544                
                
  22064117.960   115947899.13409  22064115.900    90349078.73948                
                
  22695991.500   119268384.59109  22695995.240    92936487.35749  22695995.340  
  89064110.73008
  22936158.140   122391711.31908  22936165.720    95193558.77906                
                
  19715045.000   105536204.92009  19715044.460    82083754.05009                
                
  20384746.260   109159415.88009  20384745.840    84901780.27008                
                
  24359476.940   130215361.74508  24359475.040   101278607.99904                
                
  22302379.520   119093459.66005  22302380.540    92628252.53305                
                
  20874332.480   111272107.63208  20874334.540    86545019.24108                
                
  22938470.380   122576334.17408  22938473.880    95337217.62006                
                
  22694071.800   121398091.53708                                                
                
  22749866.280   121653769.57708  22749872.780    94619658.57207                
                
 21 10 14 12 07 25.0000000  0 19G03G04G08G16G22G26G27G29G31G32R02R03
                                R04R05R13R14R15R23R24
  23178731.480   121805049.33108  23178733.200    94913033.92548  23178733.540  
  90958360.95008
  23780401.820   124966872.10208  23780401.660    97376794.20746  23780405.120  
  93319437.35108
  24938899.160   131054787.99007  24938906.140   102120628.01947  24938906.920  
  97865593.67707
  20570797.500   108100410.88309  20570795.840    84234110.09748                
                
  23373849.200   122830431.14208  23373847.600    95712031.49647                
                
  20648337.980   108507940.80709  20648339.600    84551694.82949  20648338.700  
  81028706.68709
  22717510.100   119381363.51008  22717513.720    93024477.71148  22717513.860  
  89148446.97008
  24938251.460   131051606.19806  24938250.020   102118234.57045                
                
  22064958.720   115952317.34209  22064956.680    90352521.48848                
                
  22698831.280   119283307.63308  22698835.020    92948115.66549  22698835.160  
  89075254.53408
  22940271.340   122413660.44908  22940278.960    95210630.32206                
                
  19717073.220   105547062.22909  19717072.720    82092198.60908                
                
  20383000.360   109150066.74009  20382999.960    84894508.71508                
                
  24355697.360   130195157.76408  24355695.440   101262893.77704                
                
  22304274.340   119103577.81305  22304275.360    92636122.20705                
                
  20874734.820   111274252.32509  20874736.820    86546687.33108                
                
  22937222.540   122569666.03408  22937225.940    95332031.28906                
                
  22692936.220   121392017.28408                                                
                
  22747203.980   121639533.22508  22747210.460    94608585.91006                
                
 21 10 14 12 07 30.0000000  0 19G03G04G08G16G22G26G27G29G31G32R02R03
                                R04R05R13R14R15R23R24
  23179192.220   121807470.59108  23179193.940    94914920.58048  23179194.300  
  90960169.01208
  23777251.440   124950316.53608  23777251.200    97363893.71146  23777254.720  
  93307074.42708
  24935363.120   131036205.74407  24935370.080   102106148.27447  24935370.900  
  97851717.27107
  20570054.180   108096504.70008  20570052.500    84231066.28348                
                
  23375035.280   122836663.90108  23375033.660    95716888.14047                
                
  20649783.020   108515534.65408  20649784.660    84557612.07548  20649783.740  
  81034377.41809
  22714173.280   119363828.45808  22714176.840    93010814.02648  22714177.000  
  89135352.64408
  24940668.680   131064309.09506  24940667.300   102128132.89144                
                
  22065799.540   115956735.88409  22065797.520    90355964.47248                
                
  22701672.420   119298237.91108  22701676.160    92959749.59349  22701676.320  
  89086403.73508
  22944384.840   122435611.07608  22944392.460    95227702.99906                
                
  19719104.780   105557937.40909  19719104.280    82100657.04008                
                
  20381257.940   109140736.02109  20381257.520    84887251.44308                
                
  24351918.540   130174958.01708  24351916.840   101247182.84605                
                
  22306168.340   119113691.51505  22306169.340    92643988.38705                
                
  20875137.480   111276398.80109  20875139.440    86548356.76907                
                
  22935975.400   122563002.09408  22935978.820    95326848.21906                
                
  22691803.240   121385956.82208                                                
                
  22744542.240   121625299.83108  22744548.660    94597515.50106                
                
 21 10 14 12 07 35.0000000  0 19G03G04G08G16G22G26G27G29G31G32R02R03
                                R04R05R13R14R15R23R24
  23179655.520   121809905.09908  23179657.240    94916817.63248  23179657.580  
  90961986.98908
  23774101.640   124933764.38108  23774101.460    97350995.97245  23774104.960  
  93294714.03708
  24931826.720   131017621.67607  24931833.720   102091667.16647  24931834.520  
  97837839.49707
  20569313.540   108092612.65808  20569311.880    84228033.56248                
                
  23376222.920   122842904.83408  23376221.280    95721751.23946                
                
  20651229.620   108523136.75408  20651231.300    84563535.82648  20651230.360  
  81040054.30509
  22710837.380   119346298.29808  22710840.940    92997154.22048  22710841.080  
  89122261.96708
  24943087.980   131077022.69206  24943086.580   102138039.67045                
                
  22066640.820   115961156.79509  22066638.820    90359409.38248                
                
  22704515.320   119313177.43809  22704519.080    92971390.80149  22704519.240  
  89097559.85708
  22948498.960   122457564.96608  22948506.600    95244778.30105                
                
  19721140.040   105568832.31809  19721139.560    82109130.88308                
                
  20379519.360   109131425.96109  20379518.940    84880010.32508                
                
  24348140.860   130154764.42508  24348139.440   101231476.80204                
                
  22308061.900   119123802.89205  22308062.900    92651852.83005                
                
  20875540.820   111278548.93409  20875542.800    86550029.13707                
                
  22934729.400   122556344.28308  22934732.860    95321669.99006                
                
  22690673.260   121379912.46608                                                
                
  22741881.460   121611071.56208  22741887.820    94586449.14806                
                
 21 10 14 12 07 40.0000000  0 19G03G04G08G16G22G26G27G29G31G32R02R03
                                R04R05R13R14R15R23R24
  23180121.160   121812352.08008  23180122.900    94918724.34648  23180123.260  
  90963814.26608
  23770952.340   124917214.80808  23770952.180    97338100.19146  23770955.700  
  93282355.59908
  24928289.900   130999035.17207  24928296.880   102077184.12747  24928297.680  
  97823959.92608
  20568575.440   108088733.97909  20568573.800    84225011.20948                
                
  23377411.980   122849153.15008  23377410.280    95726620.03446                
                
  20652677.600   108530746.24508  20652679.320    84569465.29148  20652678.380  
  81045736.71309
  22707502.260   119328772.22608  22707505.800    92983497.56248  22707505.920  
  89109174.35408
  24945509.180   131089746.21805  24945507.800   102147954.11845                
                
  22067482.380   115965579.26009  22067480.400    90362855.44848                
                
  22707359.860   119328125.41308  22707363.600    92983038.54548  22707363.780  
  89108722.28108
  22952613.520   122479521.15408  22952621.180    95261855.35005                
                
  19723178.840   105579746.26509  19723178.400    82117619.49808                
                
  20377784.480   109122135.64509  20377784.040    84872784.51508                
                
  24344364.220   130134576.22108  24344362.940   101215774.91604                
                
  22309954.920   119133911.16105  22309955.900    92659714.81305                
                
  20875944.720   111280701.95709  20875946.680    86551703.71207                
                
  22933484.500   122549691.89908  22933487.800    95316495.92205                
                
  22689546.120   121373883.26508                                                
                
  22739221.520   121596847.74008  22739227.800    94575386.20306                
                
 21 10 14 12 07 45.0000000  0 19G03G04G08G16G22G26G27G29G31G32R02R03
                                R04R05R13R14R15R23R24
  23180589.320   121814812.09908  23180591.040    94920641.25048  23180591.400  
  90965651.29708
  23767803.680   124900668.44307  23767803.480    97325206.93646  23767807.040  
  93269999.56408
  24924752.620   130980446.76407  24924759.680   102062699.65547  24924760.480  
  97810078.95007
  20567839.980   108084869.19208  20567838.360    84221999.69748                
                
  23378602.580   122855409.44808  23378600.820    95731495.07047                
                
  20654127.160   108538363.72909  20654128.880    84575401.00349  20654127.900  
  81051425.10609
  22704168.060   119311250.85608  22704171.580    92969844.58848  22704171.680  
  89096090.24908
  24947932.280   131102269.24106  24947931.040   102157606.69945                
                
  22068324.360   115970003.85208  22068322.380    90366303.19448                
                
  22710206.080   119343082.40309  22710209.820    92994693.33449  22710210.020  
  89119891.43408
  22956728.680   122501480.35808  22956736.320    95278934.76906                
                
  19725221.280   105590679.74009  19725220.880    82126123.32108                
                
  20376053.420   109112865.70709  20376052.960    84865574.57208                
                
  24340588.740   130114394.06108  24340587.360   101200077.69404                
                
  22311847.460   119144016.78105  22311848.400    92667574.75805                
                
  20876349.300   111282858.37709  20876351.200    86553380.94407                
                
  22932240.760   122543045.52608  22932243.900    95311326.54406                
                
  22688421.940   121367869.94908                                                
                
  22736562.460   121582628.82108  22736568.780    94564327.11006                
                
 21 10 14 12 07 50.0000000  0 19G03G04G08G16G22G26G27G29G31G32R02R03
                                R04R05R13R14R15R23R24
  23181059.980   121817285.27107  23181061.680    94922568.37247  23181062.060  
  90967498.12708
  23764655.640   124884125.38407  23764655.420    97312316.22246  23764659.020  
  93257645.97608
  24921215.000   130961856.45607  24921222.120   102048213.63747  24921222.920  
  97796196.52307
  20567107.200   108081018.41008  20567105.560    84218999.07748                
                
  23379794.680   122861673.76308  23379792.860    95736376.31147                
                
  20655578.220   108545989.30008  20655579.980    84581342.99149  20655578.980  
  81057119.53209
  22700834.760   119293734.30608  22700838.260    92956195.33348  22700838.340  
  89083009.73208
  24950357.400   131115013.84705  24950356.420   102167537.55345                
                
  22069166.760   115974430.67809  22069164.780    90369752.64748                
                
  22713054.040   119358048.49408  22713057.780    93006355.19148  22713058.000  
  89131067.38908
  22960844.400   122523442.76208  22960852.040    95296016.63606                
                
  19727267.400   105601632.95209  19727267.040    82134642.45408                
                
  20374326.180   109103616.29709  20374325.700    84858380.56208                
                
  24336814.380   130094218.04207  24336813.020   101184385.23504                
                
  22313739.540   119154120.04905  22313740.440    92675432.82905                
                
  20876754.540   111285018.33209  20876756.400    86555060.89008                
                
  22930998.120   122536405.23008  22931001.180    95306161.85406                
                
  22687300.740   121361872.47508                                                
                
  22733904.360   121568414.90507  22733910.660    94553271.87107                
                
 21 10 14 12 07 55.0000000  0 19G03G04G08G16G22G26G27G29G31G32R02R03
                                R04R05R13R14R15R23R24
  23181532.880   121819770.29308  23181534.580    94924504.76848  23181534.960  
  90969353.82708
  23761507.980   124867584.42408  23761507.780    97299427.18346  23761511.380  
  93245293.97508
  24917676.840   130943263.17407  24917683.980   102033725.34547  24917684.780  
  97782311.89107
  20566376.820   108077180.36608  20566375.200    84216008.41048                
                
  23380988.080   122867944.84608  23380986.220    95741262.86647                
                
  20657030.620   108553621.69808  20657032.380    84587290.33048  20657031.360  
  81062819.04609
  22697502.120   119276221.34408  22697505.640    92942548.91248  22697505.700  
  89069931.89408
  24952784.300   131127767.85205  24952783.500   102177475.70545                
                
  22070009.340   115978858.52709  22070007.400    90373202.93048                
                
  22715903.520   119373022.46308  22715907.260    93018023.20248  22715907.500  
  89142249.23008
  22964960.420   122545406.79408  22964968.100    95313099.80306                
                
  19729316.980   105612604.63109  19729316.660    82143175.99808                
                
  20372602.500   109094386.00208  20372602.020    84851201.46008                
                
  24333040.920   130074046.87007  24333039.520   101168696.60203                
                
  22315630.920   119164219.57105  22315631.800    92683288.03705                
                
  20877160.200   111287180.59709  20877162.040    86556742.67507                
                
  22929756.360   122529769.68408  22929759.360    95301000.92105                
                
  22686182.280   121355889.69008                                                
                
  22731247.020   121554204.87608  22731253.280    94542219.69106                
                
 21 10 14 12 08  0.0000000  0 19G03G04G08G16G22G26G27G29G31G32R02R03
                                R04R05R13R14R15R23R24
  23182007.960   121822266.90508  23182009.660    94926450.19048  23182010.020  
  90971218.17608
  23758360.660   124851045.24008  23758360.480    97286539.52646  23758364.100  
  93232943.28208
  24914138.040   130924666.62507  24914145.240   102019234.50847  24914146.020  
  97768424.82107
  20565648.840   108073354.80008  20565647.200    84213027.46448                
                
  23382182.720   122874222.37508  23382180.800    95746154.43846                
                
  20658484.240   108561260.60709  20658486.020    84593242.73749  20658484.980  
  81068523.42009
  22694170.120   119258711.66508  22694173.640    92928905.04448  22694173.660  
  89056856.52408
  24955212.940   131140530.80406  24955212.260   102187420.89745                
                
  22070852.060   115983287.08409  22070850.120    90376653.77148                
                
  22718754.400   119388003.95408  22718758.140    93029697.09148  22718758.400  
  89153436.67308
  22969076.780   122567372.77008  22969084.500    95330184.46806                
                
  19731369.920   105623594.31109  19731369.640    82151723.52608                
                
  20370882.380   109085174.76009  20370881.880    84844037.16908                
                
  24329268.300   130053880.37508  24329266.840   101153011.55004                
                
  22317521.520   119174315.08005  22317522.340    92691140.11205                
                
  20877566.240   111289344.78709  20877568.020    86558425.95208                
                
  22928515.400   122523138.55908  22928518.340    95295843.42206                
                
  22685066.500   121349921.30008                                                
                
  22728590.340   121539998.32408  22728596.500    94531170.18306                
                
 21 10 14 12 08  5.0000000  0 19G03G04G08G16G22G26G27G29G31G32R02R03
                                R04R05R13R14R15R23R24
  23182485.300   121824775.08408  23182486.940    94928404.61748  23182487.280  
  90973091.16508
  23755213.700   124834507.87207  23755213.480    97273653.28046  23755217.140  
  93220593.94808
  24910598.600   130906066.77107  24910605.860   102004741.08847  24910606.640  
  97754535.27507
  20564923.260   108069541.71708  20564921.620    84210056.24348                
                
  23383378.560   122880506.37808  23383376.620    95751051.06046                
                
  20659939.100   108568906.01909  20659940.880    84599200.21949  20659939.820  
  81074232.66609
  22690838.760   119241205.30308  22690842.240    92915263.76748  22690842.260  
  89043783.62508
  24957643.240   131153302.74805  24957642.740   102197373.10345                
                
  22071694.940   115987716.39308  22071692.980    90380105.18748                
                
  22721606.740   119402992.99208  22721610.480    93041376.85548  22721610.740  
  89164629.77808
  22973193.380   122589340.05708  22973201.160    95347270.15806                
                
  19733426.220   105634601.98309  19733425.960    82160285.05908                
                
  20369165.740   109075982.37509  20369165.260    84836887.55308                
                
  24325496.580   130033718.65808  24325495.220   101137330.23205                
                
  22319411.360                    22319412.140                                  
                
  20877972.680   111291511.00809  20877974.400    86560110.80708                
                
  22927275.300   122516512.00108  22927278.240    95290689.46306                
                
  22683953.460   121343967.31108                                                
                
  22725934.280   121525795.37508  22725940.420    94520123.51007                
                
 21 10 14 12 08 10.0000000  0 19G03G04G08G16G22G26G27G29G31G32R02R03
                                R04R05R13R14R15R23R24
  23182965.040   121827296.16908  23182966.660    94930369.00848  23182966.980  
  90974973.76208
  23752067.320   124817973.64407  23752067.100    97260769.37746  23752070.780  
  93208246.96208
  24907058.840   130887464.94907  24907066.080   101990246.04847  24907066.880  
  97740644.28007
  20564200.280   108065742.44209  20564198.600    84207095.69348                
                
  23384575.900   122886798.12708  23384573.900    95755953.61746                
                
  20661395.460   108576559.23209  20661397.220    84605163.68049  20661396.160  
  81079947.73209
  22687508.260   119223703.62308  22687511.700    92901626.02748  22687511.720  
  89030714.20608
  24960075.640   131166085.09605  24960075.120   102207333.24245                
                
  22072538.200   115992147.72809  22072536.200    90383558.08748                
                
  22724460.780   119417990.89708  22724464.480    93053063.43249  22724464.740  
  89175829.47908
  22977310.500   122611310.04908  22977318.280    95364357.86106                
                
  19735486.160   105645629.13409  19735485.920    82168861.64009                
                
  20367452.840   109066810.25109  20367452.420    84829753.59508                
                
  24321725.960   130013562.74508  24321724.700   101121653.35805                
                
  22321300.660   119194499.15815  22321301.400    92706835.67715                
                
  20878379.700   111293680.55009  20878381.400    86561798.15408                
                
  22926036.320   122509891.16308  22926039.300    95285539.86906                
                
  22682843.360   121338029.01408                                                
                
  22723279.140   121511597.28708  22723285.260    94509080.51107                
                
 21 10 14 12 08 15.0000000  0 19G03G04G08G16G22G26G27G29G31G32R02R03
                                R04R05R13R14R15R23R24
  23183447.520   121829831.50008  23183449.140    94932344.63248  23183449.380  
  90976867.03408
  23748921.800   124801443.96407  23748921.600    97247889.15446  23748925.280  
  93195903.36808
  24903518.940   130868862.52907  24903526.200   101975750.67147  24903526.980  
  97726752.82107
  20563480.180   108061958.36708  20563478.500    84204147.11248                
                
  23385774.960   122893099.06208  23385772.940    95760863.47146                
                
  20662853.580   108584221.67809  20662855.360    84611134.46449  20662854.260  
  81085669.68809
  22684178.940   119206207.99408  22684182.360    92887993.13748  22684182.360  
  89017649.32508
  24962510.220   131178879.15005  24962509.720   102217302.67145                
                
  22073382.100   115996582.51809  22073380.100    90387013.81548                
                
  22727316.760   119432999.03908  22727320.500    93064758.11349  22727320.700  
  89187036.82508
  22981428.440   122633284.25708  22981436.220    95381448.97005                
                
  19737549.980   105656677.01509  19737549.780    82177454.47208                
                
  20365744.020   109057659.84908  20365743.640    84822636.66208                
                
  24317956.740   129993414.25607  24317955.600   101105982.37304                
                
  22323189.720   119204586.62205  22323190.460    92714681.53905                
                
  20878787.600   111295854.68409  20878789.300    86563489.19507                
                
  22924798.740   122503277.68908  22924801.720    95280396.11606                
                
  22681736.480   121332107.95808                                                
                
  22720625.200   121497405.63008  22720631.340    94498042.64906                
                
 21 10 14 12 08 20.0000000  0 19G03G04G08G16G22G26G27G29G31G32R02R03
                                R04R05R13R14R15R23R24
  23183932.620   121832380.56508  23183934.220    94934330.88848  23183934.420  
  90978770.55108
  23745777.080   124784918.31507  23745776.880    97235012.01146  23745780.540  
  93183562.79908
  24899978.840   130850259.05407  24899986.100   101961254.40247  24899986.900  
  97712860.57507
  20562762.860   108058188.89108  20562761.180    84201209.83948                
                
  23386975.680   122899408.59908  23386973.640    95765779.95947                
                
  20664313.340   108591892.79709  20664315.120    84617111.93949  20664314.020  
  81091398.12109
  22680850.660   119188717.90608  22680854.080    92874364.50548  22680854.080  
  89004588.57708
  24964946.920   131191684.42305  24964946.540   102227280.79645                
                
  22074226.580   116001020.23009  22074224.540    90390471.75448                
                
  22730174.580   119448016.88208  22730178.320    93076460.29348  22730178.520  
  89198251.44208
  22985547.100   122655262.29608  22985554.820    95398543.00406                
                
  19739617.580   105667745.13109  19739617.400    82186062.99208                
                
  20364039.160   109048530.68308  20364038.820    84815536.18608                
                
  24314188.780   129973272.76408  24314187.880   101090316.79405                
                
  22325078.360   119214672.34105  22325079.220    92722525.97605                
                
  20879196.320   111298033.12509  20879197.980    86565183.52808                
                
  22923562.340   122496670.89808  22923565.380    95275257.49006                
                
  22680632.740   121326203.50008                                                
                
  22717972.360   121483219.82508  22717978.440    94487009.27407                
                
 21 10 14 12 08 25.0000000  0 19G03G04G08G16G22G26G27G29G31G32R02R03
                                R04R05R13R14R15R23R24
  23184420.300   121834943.27208  23184421.900    94936327.82348  23184422.060  
  90980684.24408
  23742633.080   124768396.60407  23742632.940    97222137.98146  23742636.560  
  93171225.15408
  24896438.500   130831654.34407  24896445.780   101946757.22147  24896446.580  
  97698967.39607
  20562048.280   108054433.91609  20562046.640    84198283.92048                
                
  23388178.000   122905726.65208  23388175.940    95770703.14846                
                
  20665774.760   108599572.45309  20665776.520    84623096.12249  20665775.400  
  81097132.93409
  22677523.420   119171233.28908  22677526.840    92860740.18648  22677526.840  
  88991531.91808
  24967385.720   131204500.77405  24967385.600   102237267.57945                
                
  22075071.580   116005460.73309  22075069.520    90393931.92047                
                
  22733034.240   119463044.30509  22733037.960    93088169.99049  22733038.140  
  89209473.20108
  22989666.340   122677243.71508  22989674.100    95415639.72205                
                
  19741688.920   105678833.36609  19741688.820    82194687.19808                
                
  20362338.280   109039422.63308  20362337.940    84808452.17708                
                
  24310422.100   129953138.11008  24310421.360   101074656.58004                
                
  22326966.720   119224756.20605  22326967.660    92730369.01305                
                
  20879605.760   111300215.50209  20879607.420    86566880.96807                
                
  22922327.120   122490070.54808  22922330.300    95270123.93806                
                
  22679532.040   121320315.62108                                                
                
  22715320.500   121469039.62708  22715326.600    94475980.31306                
                
 21 10 14 12 08 30.0000000  0 19G03G04G08G16G22G26G27G29G31G32R02R03
                                R04R05R13R14R15R23R24
  23184910.340   121837518.31608  23184911.900    94938334.31848  23184912.060  
  90982607.15608
  23739489.620   124751877.58407  23739489.480    97209265.98746  23739493.100  
  93158889.51408
  24892897.680   130813047.17307  24892904.980   101932258.06547  24892905.780  
  97685072.39307
  20561336.260   108050692.23609  20561334.600    84195368.30248                
                
  23389381.660   122912051.97208  23389379.620    95775631.93046                
                
  20667237.540   108607259.39609  20667239.300    84629085.92049  20667238.160  
  81102873.17909
  22674197.020   119153752.89208  22674200.400    92847119.10148  22674200.380  
  88978478.39408
  24969826.440   131217326.90705  24969826.340   102247261.92645                
                
  22075916.880   116009902.78809  22075914.800    90397393.22948                
                
  22735895.480   119478080.08109  22735899.200    93099886.13249  22735899.340  
  89220701.17208
  22993786.020   122699227.12208  22993793.760    95432737.91706                
                
  19743763.760   105689940.32309  19743763.700    82203325.91808                
                
  20360641.120   109030334.45309  20360640.780    84801383.56308                
                
  24306656.500   129933009.11107  24306655.880   101059000.63805                
                
  22328854.500   119234836.75805  22328855.440    92738209.41805                
                
  20880015.720   111302400.64409  20880017.340    86568580.50107                
                
  22921092.940   122483475.59208  22921096.200    95264994.51606                
                
  22678434.200   121314443.08308                                                
                
  22712669.560   121454864.04708  22712675.620    94464954.87006                
                
 21 10 14 12 08 35.0000000  0 19G03G04G08G16G22G26G27G29G31G32R02R03
                                R04R05R13R14R15R23R24
  23185402.580   121840105.03408  23185404.140    94940349.95548  23185404.280  
  90984538.77408
  23736346.560   124735360.58507  23736346.420    97196395.63247  23736350.020  
  93146555.39508
  24889356.300   130794436.96907  24889363.580   101917756.60647  24889364.420  
  97671175.13207
  20560626.640   108046963.15009  20560624.980    84192462.55848                
                
  23390586.580   122918383.84608  23390584.600    95780565.87046                
                
  20668701.580   108614952.91209  20668703.340    84635080.90149  20668702.180  
  81108618.33909
  22670871.240   119136276.04408  22670874.660    92833500.84248  22670874.620  
  88965427.54408
  24972268.980   131230162.04306  24972268.900   102257263.36746                
                
  22076762.380   116014345.71509  22076760.260    90400855.28548                
                
  22738758.140   119493123.46108  22738761.900    93111608.25848  22738762.020  
  89231934.85308
  22997906.060   122721212.40208  22997913.760    95449837.61306                
                
  19745842.000   105701065.41709  19745841.980    82211978.79408                
                
  20358947.540   109021265.42808  20358947.200    84794329.90808                
                
  24302891.860   129912884.98507  24302891.400   101043348.61904                
                
  22330741.400   119244913.35005  22330742.480    92746046.81105                
                
  20880426.040   111304587.88009  20880427.660    86570281.71907                
                
  22919859.640   122476885.10908  22919862.860    95259868.63106                
                
  22677339.120   121308585.23108                                                
                
  22710019.360   121440692.33308  22710025.440    94453932.49806                
                
 21 10 14 12 08 40.0000000  0 19G03G04G08G16G22G26G27G29G31G32R02R03
                                R04R05R13R14R15R23R24
  23185897.060   121842703.49608  23185898.600    94942374.69048  23185898.760  
  90986479.18308
  23733203.880   124718845.69007  23733203.720    97183526.85946  23733207.340  
  93134222.85008
  24885814.360   130775823.79707  24885821.600   101903252.74347  24885822.460  
  97657275.62207
  20559919.420   108043246.70509  20559917.760    84189566.60248                
                
  23391792.780   122924722.32808  23391790.820    95785504.90046                
                
  20670166.880   108622653.11109  20670168.660    84641081.01849  20670167.480  
  81114368.48309
  22667546.180   119118802.84408  22667549.560    92819885.35548  22667549.560  
  88952379.40108
  24974713.220   131243006.32106  24974713.100   102267271.86545                
                
  22077608.020   116018789.57809  22077605.880    90404318.00148                
                
  22741622.300   119508174.56009  22741626.060    93123336.32649  22741626.180  
  89243174.27708
  23002026.400   122743199.20608  23002034.100    95466938.43306                
                
  19747923.620   105712208.74409  19747923.660    82220645.78608                
                
  20357257.540   109012215.72609  20357257.240    84787291.22408                
                
  24299128.120   129892765.77707  24299127.780   101027700.31904                
                
  22332627.640   119254986.18505  22332628.780    92753881.21105                
                
  20880836.780   111306777.19309  20880838.380    86571984.49007                
                
  22918627.240   122470299.34508  22918630.320    95254746.34906                
                
  22676246.760   121302742.00508                                                
                
  22707369.880   121426524.44708  22707375.900    94442913.04207                
                
 21 10 14 12 08 45.0000000  0 19G03G04G08G16G22G26G27G29G31G32R02R03
                                R04R05R13R14R15R23R24
  23186393.720   121845313.38308  23186395.260    94944408.37848  23186395.440  
  90988428.11708
  23730061.560   124702332.61307  23730061.400    97170659.54946  23730065.000  
  93121891.66208
  24882271.780   130757207.28707  24882279.020   101888746.35347  24882279.880  
  97643373.64807
  20559214.540   108039542.59608  20559212.900    84186680.30648                
                
  23393000.200   122931067.13408  23392998.240    95790448.91947                
                
  20671633.400   108630359.63109  20671635.160    84647086.11949  20671633.980  
  81120123.36009
  22664221.740   119101332.99608  22664225.140    92806272.52348  22664225.100  
  88939333.76508
  24977159.160   131255859.55506  24977158.860   102277287.36146                
                
  22078453.780   116023234.11709  22078451.640    90407781.30248                
                
  22744487.860   119523233.02509  22744491.600    93135070.20349  22744491.720  
  89254419.22908
  23006146.880   122765187.10608  23006154.620    95484040.15406                
                
  19750008.580   105723369.80209  19750008.640    82229326.62408                
                
  20355571.060   109003184.90608  20355570.820    84780267.26508                
                
  24295365.300   129872651.46507  24295365.180   101012055.86905                
                
  22334513.160   119265054.91205  22334514.300    92761712.44905                
                
  20881247.820   111308968.32409  20881249.440    86573688.72408                
                
  22917395.660   122463717.86608  22917398.680    95249627.47106                
                
  22675157.100   121296913.24908                                                
                
  22704721.060   121412360.23608  22704727.040    94431896.49107                
                
 21 10 14 12 08 50.0000000  0 19G03G04G08G16G22G26G27G29G31G32R02R03
                                R04R05R13R14R15R23R24
  23186892.940   121847936.72308  23186894.500    94946452.52748  23186894.680  
  90990387.08908
  23726919.960   124685823.42007  23726919.800    97157795.24046  23726923.400  
  93109563.36308
  24878728.980   130738589.61107  24878736.220   101874239.03047  24878737.060  
  97629470.78807
  20558512.400   108035852.89908  20558510.780    84183805.21948                
                
  23394209.200   122937420.24408  23394207.260    95795399.37547                
                
  20673101.500   108638074.53809  20673103.260    84653097.73949  20673102.060  
  81125884.49409
  22660898.340   119083868.55608  22660901.740    92792663.89548  22660901.680  
  88926292.17608
  24979607.200   131268723.67907  24979606.800   102287311.37546                
                
  22079300.080   116027681.36409  22079297.940    90411246.68148                
                
  22747355.200   119538300.94609  22747358.960    93146811.40748  22747359.040  
  89265671.21808
  23010268.080   122787178.68608  23010275.840    95501144.72206                
                
  19752097.260   105734550.92409  19752097.360    82238023.04508                
                
  20353888.540   108994175.14908  20353888.320    84773259.67708                
                
  24291603.720   129852543.75507  24291603.820   100996416.60705                
                
  22336398.260   119275121.46005  22336399.440    92769541.98405                
                
  20881659.580   111311163.34509  20881661.240    86575395.95708                
                
  22916165.260   122457142.87808  22916168.280    95244513.62206                
                
  22674070.520   121291101.01408                                                
                
  22702073.320   121398201.78108  22702079.280    94420884.40907                
                
 21 10 14 12 08 55.0000000  0 19G03G04G08G16G22G26G27G29G31G32R02R03
                                R04R05R13R14R15R23R24
  23187394.520   121850572.45208  23187396.060    94948506.32748  23187396.300  
  90992355.32808
  23723778.900   124669317.04607  23723778.760    97144933.12147  23723782.360  
  93097237.18408
  24875185.720   130719969.57807  24875192.940   101859729.86847  24875193.800  
  97615566.17107
  20557812.820   108032176.53108  20557811.180    84180940.51148                
                
  23395419.580   122943780.64408  23395417.660    95800355.51747                
                
  20674571.000   108645796.74909  20674572.740    84659115.04149  20674571.540  
  81131651.08009
  22657575.780   119066408.51408  22657579.180    92779058.69048  22657579.100  
  88913253.85308
  24982057.100   131281597.67806  24982056.700   102297343.06046                
                
  22080146.680   116032130.26608  22080144.540    90414713.35248                
                
  22750224.140   119553377.20908  22750227.920    93158559.11849  22750227.960  
  89276929.43908
  23014389.700   122809172.52808  23014397.460    95518251.04605                
                
  19754189.440   105745750.70709  19754189.580    82246733.97508                
                
  20352209.720   108985185.44408  20352209.540    84766267.67408                
                
  24287843.180   129832441.82407  24287843.500   100980781.73205                
                
  22338282.780   119285184.97705  22338284.020    92777369.15805                
                
  20882071.860   111313361.15209  20882073.580    86577105.35808                
                
  22914935.840   122450573.18208  22914938.800    95239403.89406                
                
  22672986.840   121285304.22008                                                
                
  22699426.480   121384047.97508  22699432.400    94409875.92307                
                
 21 10 14 12 09  0.0000000  0 19G03G04G08G16G22G26G27G29G31G32R02R03
                                R04R05R13R14R15R23R24
  23187898.540   121853221.04508  23187900.120    94950570.19548  23187900.380  
  90994333.16308
  23720638.460   124652813.96507  23720638.380    97132073.61146  23720641.920  
  93084913.45908
  24871642.120   130701347.65507  24871649.340   101845219.27147  24871650.160  
  97601660.16507
  20557115.820   108028513.93708  20557114.240    84178086.57848                
                
  23396631.440   122950148.75408  23396629.520    95805317.69346                
                
  20676041.960   108653526.72209  20676043.700    84665138.43049  20676042.500  
  81137423.46509
  22654254.140   119048953.30908  22654257.500    92765457.28348  22654257.440  
  88900219.15408
  24984508.940   131294481.95007  24984508.560   102307382.79646                
                
  22080993.680   116036581.28109  22080991.540    90418181.70448                
                
  22753094.760   119568462.28209  22753098.560    93170313.73149  22753098.560  
  89288194.23908
  23018511.720   122831168.61408  23018519.480    95535359.15205                
                
  19756285.240   105756969.87809  19756285.440    82255460.01608                
                
  20350534.720   108976216.19208  20350534.580    84759291.61608                
                
  24284083.880   129812346.18407  24284084.340   100965151.82805                
                
  22340166.820   119295245.78205  22340168.060    92785194.26205                
                
  20882484.740   111315562.12809  20882486.480    86578817.26308                
                
  22913707.500   122444009.23908  22913710.340    95234298.64806                
                
  22671906.160   121279523.35608                                                
                
  22696780.580   121369899.38608  22696786.540    94398871.55007                
                
 21 10 14 12 09  5.0000000  0 19G03G04G08G16G22G26G27G29G31G32R02R03
                                R04R05R13R14R15R23R24
  23188405.000   121855882.71808  23188406.620    94952644.20148  23188406.960  
  90996320.75408
  23717498.720   124636314.44307  23717498.560    97119216.81546  23717502.140  
  93072592.38208
  24868098.180   130682724.21407  24868105.440   101830707.44447  24868106.240  
  97587752.99507
  20556421.520   108024865.34508  20556419.920    84175243.49948                
                
  23397844.800   122956524.79608  23397842.840    95810286.00347                
                
  20677514.440   108661264.67509  20677516.180    84671167.98349  20677514.960  
  81143201.81809
  22650933.480   119031503.21008  22650936.820    92751859.80148  22650936.760  
  88887188.25508
  24986962.740   131307376.62507  24986962.380   102317430.60546                
                
  22081841.100   116041034.64508  22081838.980    90421651.83248                
                
  22755967.060   119583556.38609  22755970.880    93182075.33149  22755970.880  
  89299465.77908
  23022634.360   122853167.91208  23022642.080    95552469.72005                
                
  19758384.700   105768208.49509  19758384.900    82264201.14308                
                
  20348863.520   108967267.60808  20348863.480    84752331.60408                
                
  24280325.800   129792257.02607  24280326.340   100949526.94305                
                
  22342050.420   119305304.21005  22342051.700    92793017.46905                
                
  20882898.300   111317766.67109  20882900.060    86580531.90308                
                
  22912480.220   122437451.30708  22912483.040    95229198.02806                
                
  22670828.520   121273758.71708                                                
                
  22694135.680   121355756.04308  22694141.620    94387871.19507                
                
 21 10 14 12 09 10.0000000  0 19G03G04G08G16G22G26G27G29G31G32R02R03
                                R04R05R13R14R15R23R24
  23188913.720   121858556.22508  23188915.400    94954727.42748  23188915.800  
  90998317.21208
  23714359.420   124619817.26107  23714359.240    97106361.85947  23714362.840  
  93060273.06308
  24864553.780   130664097.99607  24864561.020   101816193.45847  24864561.800  
  97573843.77007
  20555729.660   108021229.56408  20555728.060    84172410.40748                
                
  23399059.480   122962907.52608  23399057.460    95815259.52147                
                
  20678988.220   108669009.40509  20678989.960    84677202.82749  20678988.740  
  81148985.22209
  22647613.560   119014056.98108  22647616.880    92738265.35148  22647616.820  
  88874160.27008
  24989418.320   131320280.63807  24989417.920   102327485.65746                
                
  22082688.780   116045489.16808  22082686.660    90425122.88048                
                
  22758840.900   119598658.31009  22758844.700    93193843.02149  22758844.700  
  89310743.17408
  23026757.300   122875168.61708  23026765.000    95569581.38305                
                
  19760487.580   105779465.46709  19760487.800    82272956.54608                
                
  20347195.960   108958338.52408  20347196.000    84745386.73608                
                
  24276568.680   129772173.13007  24276569.300   100933906.14805                
                
  22343933.220   119315358.88205  22343934.580    92800837.76305                
                
  20883312.260   111319973.41409  20883314.040    86582248.25308                
                
  22911253.800   122430898.22708  22911256.660    95224101.19306                
                
  22669753.720   121268009.14608                                                
                
  22691491.620   121341616.95908  22691497.460    94376874.15207                
                
 21 10 14 12 09 15.0000000  0 19G03G04G08G16G22G26G27G29G31G32R02R03
                                R04R05R13R14R15R23R24
  23189424.740   121861241.62508  23189426.420    94956819.95848  23189426.880  
  91000322.52708
  23711220.620   124603322.45808  23711220.400    97093508.79146  23711223.980  
  93047955.51608
  24861008.800   130645469.11307  24861016.120   101801677.43147  24861016.840  
  97559932.54807
  20555040.240   108017606.60408  20555038.660    84169587.34548                
                
  23400275.400   122969296.95808  23400273.320    95820238.30647                
                
  20680463.280   108676760.90509  20680465.020    84683242.97749  20680463.800  
  81154773.67409
  22644294.360   118996614.73008  22644297.740    92724674.03648  22644297.640  
  88861135.24208
  24991875.620   131333193.93107  24991875.240   102337547.98646                
                
  22083536.660   116049944.86008  22083534.580    90428594.87348                
                
  22761716.200   119613768.05809  22761720.020    93205616.84749  22761720.000  
  89322026.40008
  23030880.580   122897171.23208  23030888.300    95586694.56505                
                
  19762593.880   105790740.63509  19762594.080    82281726.12608                
                
  20345532.080   108949428.91608  20345532.180    84738457.05708                
                
  24272812.520   129752094.50807  24272813.180   100918289.45005                
                
  22345815.400   119325409.84505  22345816.800    92808655.20405                
                
  20883726.680   111322182.44209  20883728.460    86583966.41308                
                
  22910028.260   122424349.90408  22910031.180    95219008.07306                
                
  22668681.700   121262274.51108                                                
                
  22688848.380   121327482.21108  22688854.100    94365880.52007                
                
 21 10 14 12 09 20.0000000  0 19G03G04G08G16G22G26G27G29G31G32R02R03
                                R04R05R13R14R15R23R24
  23189938.240   121863940.24308  23189939.960    94958922.76948  23189940.480  
  91002337.73108
  23708082.520   124586831.42708  23708082.220    97080658.62646  23708085.820  
  93035640.79008
  24857463.620   130626838.84806  24857470.960   101787160.31947  24857471.640  
  97546020.30407
  20554353.500   108013997.81308  20554351.920    84166775.29948                
                
  23401492.840   122975694.49008  23401490.700    95825223.38247                
                
  20681939.880   108684520.53509  20681941.620    84689289.43649  20681940.400  
  81160568.20709
  22640976.200   118979177.78108  22640979.580    92711086.82848  22640979.460  
  88848114.17508
  24994334.980   131346117.95007  24994334.620   102347618.65846                
                
  22084385.000   116054403.09308  22084382.960    90432068.81848                
                
  22764593.280   119628886.98709  22764597.100    93217397.81449  22764597.040  
  89333316.49108
  23035004.380   122919176.73608  23035012.160    95603809.96406                
                
  19764703.840   105802035.39209  19764704.040    82290510.93508                
                
  20343872.160   108940540.30109  20343872.280    84731543.68208                
                
  24269057.660   129732022.64006  24269058.340   100902678.02305                
                
  22347697.120   119335458.58705  22347698.620    92816470.89405                
                
  20884141.740   111324395.04709  20884143.540    86585687.33008                
                
  22908803.920   122417807.83507  22908806.860    95213919.79306                
                
  22667612.740   121256556.24808                                                
                
  22686206.140   121313353.14308  22686211.860    94354891.29907                
                
 21 10 14 12 09 25.0000000  0 19G03G04G08G16G22G26G27G29G31G32R02R03
                                R04R05R13R14R15R23R24
  23190454.080   121866650.93708  23190455.740    94961034.99248  23190456.380  
  91004361.96308
  23704944.880   124570343.01708  23704944.580    97067810.51747  23704948.180  
  93023328.01307
  24853917.960   130608206.00106  24853925.320   101772641.18347  24853925.940  
  97532106.13207
  20553669.260   108010402.09708  20553667.680    84163973.44848                
                
  23402711.620   122982098.92308  23402709.420    95830213.82247                
                
  20683417.820   108692287.15709  20683419.560    84695341.34549  20683418.320  
  81166367.95309
  22637658.820   118961745.03908  22637662.240    92697502.89548  22637662.060  
  88835096.25008
  24996796.160   131359051.40407  24996795.780   102357696.67046                
                
  22085233.620   116058862.73908  22085231.600    90435543.85748                
                
  22767471.860   119644013.97208  22767475.680    93229185.04848  22767475.620  
  89344612.58308
  23039128.540   122941184.13508  23039136.360    95620926.82305                
                
  19766817.260   105813348.69409  19766817.440    82299310.16208                
                
  20342215.940   108931671.53309  20342216.100    84724645.74708                
                
  24265303.820   129711956.29706  24265304.540   100887070.87505                
                
  22349578.240   119345504.05005  22349579.840    92824284.03205                
                
  20884557.280   111326610.17009  20884559.080    86587410.20808                
                
  22907580.480   122411270.73807  22907583.580    95208835.39106                
                
  22666546.640   121250853.35608                                                
                
  22683564.720   121299228.60708  22683570.440    94343905.59707                
                
 21 10 14 12 09 30.0000000  0 19G03G04G08G16G22G26G27G29G31G32R02R03
                                R04R05R13R14R15R23R24
  23190972.440   121869374.89808  23190974.040    94963157.53948  23190974.780  
  91006396.07608
  23701807.980   124553858.41808  23701807.640    97054965.36646  23701811.240  
  93011018.10408
  24850372.020   130589571.96307  24850379.460   101758121.10447  24850380.020  
  97518191.04708
  20552987.740   108006820.65108  20552986.140    84161182.68748                
                
  23403931.920   122988511.45108  23403929.620    95835210.56446                
                
  20684897.300   108700061.91409  20684899.040    84701399.57349  20684897.800  
  81172173.78209
  22634342.480   118944317.72008  22634345.880    92683923.16248  22634345.700  
  88822082.35908
  24999259.380   131371995.61507  24999258.920   102367783.03846                
                
  22086082.740   116063325.00008  22086080.720    90439020.92548                
                
  22770352.200   119659150.14809  22770356.000    93240979.42848  22770355.960  
  89355915.55808
  23043253.260   122963194.46808  23043261.120    95638045.94406                
                
  19768934.380   105824681.65309  19768934.520    82308124.65308                
                
  20340563.680   108922823.76608  20340563.860    84717764.12608                
                
  24261551.320   129691896.89007  24261552.080   100871469.12005                
                
  22351459.020   119355547.18405  22351460.600    92832095.33605                
                
  20884973.520   111328828.94009  20884975.300    86589135.90308                
                
  22906358.260   122404739.86208  22906361.440    95203755.81806                
                
  22665483.660   121245166.88608                                                
                
  22680924.380   121285109.77108  22680930.060    94332924.29907                
                
 21 10 14 12 09 35.0000000  0 19G03G04G08G16G22G26G27G29G31G32R02R03
                                R04R05R13R14R15R23R24
  23191493.180   121872111.47608  23191494.780    94965289.96848  23191495.540  
  91008439.61708
  23698671.680   124537377.04508  23698671.380    97042122.77547  23698674.920  
  92998710.57908
  24846825.780   130570936.00707  24846833.240   101743599.59047  24846833.760  
  97504274.56207
  20552308.820   108003252.81808  20552307.200    84158402.59848                
                
  23405153.620   122994931.41208  23405151.240    95840213.15647                
                
  20686378.220   108707844.19309  20686379.960    84707463.72749  20686378.720  
  81177985.22009
  22631027.060   118926895.14408  22631030.480    92670347.19048  22631030.260  
  88809072.02508
  25001724.560   131384949.84307  25001723.980   102377877.28046                
                
  22086932.240   116067789.22108  22086930.260    90442499.57848                
                
  22773234.180   119674294.89708  22773237.980    93252780.55848  22773237.920  
  89367224.92908
  23047378.440   122985207.29708  23047386.360    95655167.07206                
                
  19771055.040   105836033.62409  19771055.160    82316953.99508                
                
  20338915.180   108913996.31408  20338915.420    84710898.37508                
                
  24257799.920   129671843.61407  24257800.720   100855872.15506                
                
  22353339.300   119365587.55605  22353340.900    92839904.55605                
                
  20885390.320   111331050.76609  20885392.140    86590864.04208                
                
  22905137.080   122398214.44608  22905140.360    95198680.55106                
                
  22664423.620   121239496.26708                                                
                
  22678285.020   121270995.98608  22678290.620    94321946.99107                
                
 21 10 14 12 09 40.0000000  0 19G03G04G08G16G22G26G27G29G31G32R02R03
                                R04R05R13R14R15R23R24
  23192016.160   121874859.79908  23192017.720    94967431.46948  23192018.520  
  91010491.92208
  23695535.840   124520898.01508  23695535.540    97029281.93847  23695539.040  
  92986404.81508
  24843278.960   130552297.34707  24843286.480   101729075.89047  24843286.980  
  97490356.04408
  20551632.320   107999697.68208  20551630.680    84155632.32748                
                
  23406376.560   123001357.99508  23406374.100    95845220.83047                
                
  20687860.420   108715633.10209  20687862.120    84713532.97049  20687860.880  
  81183801.62309
  22627712.400   118909476.51208  22627715.820    92656774.22248  22627715.560  
  88796064.63208
  25004191.440   131397913.16107  25004190.780   102387978.53246                
                
  22087781.940   116072254.53508  22087779.960    90445979.00048                
                
  22776117.640   119689447.36608  22776121.420    93264587.61148  22776121.340  
  89378540.03908
  23051503.920   123007221.62508  23051511.840    95672289.29406                
                
  19773179.080   105847403.60309  19773179.140    82325797.26309                
                
  20337270.320   108905188.35808  20337270.600    84704047.70608                
                
  24254049.500   129651795.64006  24254050.400   100840279.27006                
                
  22355218.760   119375624.07405  22355220.440    92847710.69906                
                
  20885807.500   111333274.60809  20885809.320    86592593.66308                
                
  22903916.880   122391693.83208  22903920.200    95193608.94406                
                
  22663366.400   121233840.70808                                                
                
  22675646.440   121256886.54508  22675652.020    94310972.98207                
                
 21 10 14 12 09 45.0000000  0 19G03G04G08G16G22G26G27G29G31G32R02R03
                                R04R05R13R14R15R23R24
  23192541.720   121877621.66708  23192543.260    94969583.56448  23192544.020  
  91012554.34008
  23692400.760   124504423.14308  23692400.500    97016444.39347  23692403.940  
  92974102.14408
  24839731.980   130533657.68107  24839739.540   101714551.45847  24839740.040  
  97476436.78708
  20550958.560   107996157.08308  20550956.940    84152873.42348                
                
  23407601.080   123007792.91208  23407598.600    95850235.04246                
                
  20689344.220   108723430.43109  20689345.880    84719608.81549  20689344.660  
  81189624.30609
  22624398.800   118892063.59208  22624402.220    92643205.74048  22624401.920  
  88783061.51508
  25006660.380   131410887.43907  25006659.580   102398088.35346                
                
  22088632.180   116076722.85808  22088630.260    90449460.82048                
                
  22779002.880   119704609.28409  22779006.640    93276402.07049  22779006.580  
  89389862.24108
  23055630.020   123029239.15708  23055637.960    95689414.05605                
                
  19775306.860   105858793.54809  19775306.880    82334656.11208                
                
  20335629.460   108896401.76708  20335629.800    84697213.69208                
                
  24250300.380   129631754.65906  24250301.380   100824691.87305                
                
  22357097.940   119385658.50205  22357099.620    92855515.26905                
                
  20886225.400   111335502.40209  20886227.260    86594326.40408                
                
  22902697.860   122385179.60408  22902701.240    95188542.35706                
                
  22662312.320   121228201.91708                                                
                
  22673008.980   121242783.14508  22673014.580    94300003.72907                
                
 21 10 14 12 09 50.0000000  0 19G03G04G08G16G22G26G27G29G31G32R02R03
                                R04R05R13R14R15R23R24
  23193069.560   121880395.49008  23193071.080    94971745.01548  23193071.820  
  91014625.69808
  23689266.200   124487950.88508  23689265.960    97003608.90647  23689269.360  
  92961801.45407
  24836184.500   130515015.48007  24836192.140   101700025.07847  24836192.600  
  97462515.61107
  20550287.280   107992629.48108  20550285.660    84150124.69348                
                
  23408826.920   123014234.66308  23408824.420    95855254.60747                
                
  20690829.320   108731234.64509  20690830.960    84725690.05349  20690829.740  
  81195452.12009
  22621086.000   118874654.91008  22621089.420    92629640.59048  22621089.100  
  88770061.54508
  25009131.160   131423871.11108  25009130.200   102408205.55746                
                
  22089482.720   116081192.52808  22089480.840    90452943.70548                
                
  22781889.620   119719779.10008  22781893.360    93288222.72849  22781893.340  
  89401190.32708
  23059756.460   123051258.59108  23059764.440    95706540.32605                
                
  19777438.040   105870201.84909  19777438.040    82343529.26208                
                
  20333992.260   108887634.93508  20333992.680    84690395.08308                
                
  24246552.360   129611719.50206  24246553.360   100809109.01905                
                
  22358976.460   119395689.49405  22358978.160    92863317.19305                
                
  20886643.740   111337732.52009  20886645.640    86596060.97808                
                
  22901479.760   122378670.41208  22901483.140    95183479.71306                
                
  22661261.080   121222578.41708                                                
                
  22670372.400   121228684.41008  22670378.040    94289038.13307                
                
 21 10 14 12 09 55.0000000  0 19G03G04G08G16G22G26G27G29G31G32R02R03
                                R04R05R13R14R15R23R24
  23193599.800   121883181.80508  23193601.280    94973916.16348  23193602.000  
  91016706.38508
  23686132.220   124471481.82408  23686131.980    96990775.87647  23686135.360  
  92949503.12908
  24832636.680   130496371.27407  24832644.320   101685497.10447  24832644.800  
  97448592.96607
  20549618.560   107989115.37808  20549616.960    84147386.42748                
                
  23410054.120   123020683.72108  23410051.620    95860279.84147                
                
  20692315.840   108739046.23909  20692317.440    84731777.01649  20692316.220  
  81201285.45809
  22617774.120   118857250.97108  22617777.560    92616079.10848  22617777.200  
  88757065.13608
  25011603.800   131436864.72407  25011602.760   102418330.45546                
                
  22090333.600   116085664.04008  22090331.740    90456428.00448                
                
  22784777.960   119734957.42108  22784781.700    93300049.97348  22784781.680  
  89412524.77008
  23063883.300   123073280.25108  23063891.320    95723668.29006                
                
  19779572.740   105881628.91309  19779572.700    82352416.97208                
                
  20332358.860   108878888.38008  20332359.320    84683592.20808                
                
  24242805.480   129591690.40906  24242806.520   100793530.83006                
                
  22360854.420   119405717.56005  22360856.120    92871116.80105                
                
  20887062.660   111339965.60209  20887064.540    86597797.83008                
                
  22900262.660   122372166.57508  22900266.000    95178421.19306                
                
  22660212.840   121216970.85308                                                
                
  22667736.720   121214590.78708  22667742.320    94278076.47507                
                
 21 10 14 12 10  0.0000000  0 19G03G04G08G16G22G26G27G29G31G32R02R03
                                R04R05R13R14R15R23R24
  23194132.340   121885980.38708  23194133.860    94976096.82448  23194134.520  
  91018796.22208
  23682998.800   124455015.67007  23682998.580    96977945.05147  23683001.920  
  92937206.97308
  24829088.460   130477724.97007  24829096.080   101670967.43147  24829096.620  
  97434668.74208
  20548952.380   107985614.57808  20548950.760    84144658.48248                
                
  23411282.680   123027139.89208  23411280.140    95865310.56746                
                
  20693803.700   108746864.93309  20693805.260    84737869.45649  20693804.060  
  81207124.09509
  22614463.100   118839851.55408  22614466.560    92602521.08848  22614466.160  
  88744072.08608
  25014078.260   131449868.00207  25014077.280   102428462.81246                
                
  22091184.800   116090137.18408  22091182.960    90459913.52048                
                
  22787667.860   119750143.92208  22787671.580    93311883.53948  22787671.600  
  89423865.30508
  23068010.420   123095303.63408  23068018.480    95740797.54306                
                
  19781710.920   105893074.64509  19781710.840    82361319.14808                
                
  20330729.240   108870162.00508  20330729.700    84676804.97208                
                
  24239059.720   129571667.28506  24239060.840   100777957.25306                
                
  22362731.680   119415742.33005  22362733.440    92878913.79805                
                
  20887482.060   111342201.26109  20887483.920    86599536.63508                
                
  22899046.560   122365668.05708  22899049.820    95173366.78006                
                
  22659167.500   121211378.83908                                                
                
  22665101.960   121200502.08208  22665107.540    94267118.58407                
                
 21 10 14 12 10  5.0000000  0 19G03G04G08G16G22G26G27G29G31G32R02R03
                                R04R05R13R14R15R23R24
  23194667.160   121888791.11108  23194668.820    94978286.98448  23194669.400  
  91020895.12508
  23679865.920   124438552.38507  23679865.720    96965116.51647  23679869.020  
  92924912.95208
  24825539.780   130459076.53607  24825547.440   101656436.14947  24825548.000  
  97420742.91607
  20548288.680   107982126.95608  20548287.080    84141940.86548                
                
  23412512.560   123033602.99008  23412509.980    95870346.72047                
                
  20695292.900   108754690.66109  20695294.440    84743967.43049  20695293.240  
  81212967.99609
  22611152.920   118822456.57208  22611156.400    92588966.59148  22611155.980  
  88731082.36408
  25016554.560   131462880.76508  25016553.560   102438602.62746                
                
  22092036.280   116094611.85008  22092034.460    90463400.27248                
                
  22790559.300   119765338.51008  22790563.020    93323723.45348  22790563.080  
  89435211.89308
  23072137.900   123117328.76808  23072145.980    95757928.20005                
                
  19783852.560   105904538.78509  19783852.460    82370235.69208                
                
  20329103.340   108861455.52108  20329103.820    84670033.25308                
                
  24235315.000   129551649.98205  24235316.300   100762388.28506                
                
  22364608.480   119425763.82805  22364610.140    92886708.30405                
                
  20887901.940   111344439.42609  20887903.800    86601277.43508                
                
  22897831.380   122359174.64008  22897834.480    95168316.35305                
                
  22658125.020   121205802.20908                                                
                
  22662468.180   121186418.20508  22662473.700    94256164.49707                
                
 21 10 14 12 10 10.0000000  0 19G03G04G08G16G22G26G27G29G31G32R02R03
                                R04R05R13R14R15R23R24
  23195204.480   121891614.72108  23195206.280    94980487.26848  23195206.740  
  91023003.66508
  23676733.740   124422092.72308  23676733.600    96952290.87147  23676736.840  
  92912621.65307
  24821990.820   130440426.50507  24821998.480   101641903.69647  24821999.080  
  97406815.92707
  20547627.640   107978653.21208  20547626.040    84139234.11748                
                
  23413743.940   123040073.82208  23413741.360    95875388.98847                
                
  20696783.580   108762524.19309  20696785.100    84750071.55049  20696783.900  
  81218817.71109
  22607843.780   118805066.84208  22607847.240    92575416.23748  22607846.760  
  88718096.54708
  25019032.740   131475903.87307  25019031.700   102448750.58746                
                
  22092888.200   116099088.84308  22092886.420    90466888.90248                
                
  22793452.400   119780541.97108  22793456.180    93335570.35748  22793456.260  
  89446565.09608
  23076265.920   123139356.68408  23076274.020    95775061.09005                
                
  19785997.760   105916022.19209  19785997.660    82379167.29208                
                
  20327481.340   108852769.90708  20327481.840    84663277.84308                
                
  24231571.500   129531639.29905  24231572.960   100746824.46906                
                
  22366484.700   119435782.70305  22366486.360    92894500.82505                
                
  20888322.400   111346680.91709  20888324.300    86603020.88807                
                
  22896617.360   122352687.07908  22896620.280    95163270.55605                
                
  22657085.600   121200241.99708                                                
                
  22659835.460   121172339.88408  22659840.920    94245214.79207                
                
 21 10 14 12 10 15.0000000  0 19G03G04G08G16G22G26G27G29G31G32R02R03
                                R04R05R13R14R15R23R24
  23195743.960   121894449.67308  23195745.880    94982696.29848  23195746.260  
  91025120.66708
  23673601.980   124405635.14208  23673601.880    96939466.75546  23673605.040  
  92900331.90008
  24818441.240   130421773.42807  24818448.920   101627368.77247  24818449.600  
  97392886.63407
  20546968.940   107975191.77308  20546967.320    84136536.87548                
                
  23414976.460   123046550.77408  23414973.900    95880435.93946                
                
  20698275.440   108770363.92309  20698276.940    84756180.41049  20698275.740  
  81224672.05309
  22604535.300   118787680.78408  22604538.780    92561868.66048  22604538.240  
  88705113.48008
  25021512.600   131488935.74608  25021511.540   102458905.27946                
                
  22093740.260   116103566.59308  22093738.500    90470378.03748                
                
  22796346.920   119795752.68708  22796350.700    93347422.82048  22796350.760  
  89457923.72008
  23080394.100   123161385.46208  23080402.220    95792194.58205                
                
  19788146.240   105927523.23309  19788146.140    82388112.52508                
                
  20325862.960   108844103.56108  20325863.460    84656537.32908                
                
  24227828.980   129511633.71405  24227830.560   100731264.55506                
                
  22368360.180   119445797.47705  22368361.800    92902290.08105                
                
  20888743.180   111348924.09009  20888745.120    86604765.56507                
                
  22895404.100   122346203.75608  22895406.920    95158227.96505                
                
  22656048.960   121194696.55208                                                
                
  22657203.480   121158265.70707  22657208.880    94234268.24706                
                
 21 10 14 12 10 20.0000000  0 19G03G04G08G16G22G26G27G29G31G32R02R03
                                R04R05R13R14R15R23R24
  23196285.920   121897297.63208  23196287.920    94984915.46248  23196288.260  
  91027247.38308
  23670470.900   124389181.31608  23670470.800    96926645.57546  23670473.960  
  92888044.95708
  24814891.440   130403119.05807  24814899.100   101612832.83847  24814899.840  
  97378956.37807
  20546312.920   107971744.33508  20546311.260    84133850.53848                
                
  23416210.500   123053035.55108  23416207.960    95885488.97946                
                
  20699768.800   108778211.52709  20699770.280    84762295.40649  20699769.080  
  81230532.28109
  22601227.840   118770300.09308  22601231.320    92548325.26948  22601230.780  
  88692134.43208
  25023994.500   131501977.93508  25023993.440   102469067.99946                
                
  22094592.800   116108046.75809  22094591.040    90473869.05448                
                
  22799243.140   119810972.36608  22799246.920    93359282.26048  22799246.980  
  89469289.04708
  23084522.800   123183417.01808  23084530.940    95809330.22805                
                
  19790298.300   105939043.53309  19790298.240    82397072.73208                
                
  20324248.440   108835458.12908  20324249.000    84649813.08708                
                
  24224087.600   129491634.93105  24224089.520   100715709.96406                
                
  22370235.200   119455809.89105  22370236.800    92910077.49605                
                
  20889164.580   111351170.61809  20889166.560    86606512.84907                
                
  22894191.920   122339726.32708  22894194.660    95153189.97305                
                
  22655015.340   121189167.53708                                                
                
  22654572.540   121144197.30808  22654577.940    94223326.19706                
                
 21 10 14 12 10 25.0000000  0 19G03G04G08G16G22G26G27G29G31G32R02R03
                                R04R05R13R14R15R23R24
  23196830.100   121900157.39608  23196832.180    94987143.85148  23196832.500  
  91029382.91008
  23667340.360   124372730.09608  23667340.260    96913826.44546  23667343.360  
  92875759.95408
  24811341.200   130384462.13007  24811348.800   101598294.94547  24811349.600  
  97365024.23007
  20545659.320   107968309.70208  20545657.660    84131174.21048                
                
  23417445.780   123059526.91808  23417443.320    95890547.18146                
                
  20701263.420   108786065.80909  20701264.880    84768415.63149  20701263.700  
  81236397.49109
  22597921.180   118752923.60608  22597924.660    92534785.18048  22597924.100  
  88679158.51008
  25026478.080   131515029.33308  25026477.060   102479237.90845                
                
  22095445.560   116112528.20208  22095443.820    90477361.09048                
                
  22802140.820   119826199.76609  22802144.580    93371147.76349  22802144.660  
  89480660.14208
  23088651.780   123205449.91008  23088659.920    95826466.93705                
                
  19792453.740   105950582.02109  19792453.720    82406047.10908                
                
  20322637.620   108826832.39008  20322638.200    84643104.19308                
                
  24220347.340   129471641.76005  24220349.480   100700159.76006                
                
  22372109.520   119465818.65605  22372111.060    92917862.10705                
                
  20889586.420   111353419.39309  20889588.420    86608261.91008                
                
  22892980.620   122333253.67608  22892983.360    95148155.72406                
                
  22653984.560   121183653.71208                                                
                
  22651942.500   121130133.44208  22651947.840    94212387.67307                
                
 21 10 14 12 10 30.0000000  0 19G03G04G08G16G22G26G27G29G31G32R02R03
                                R04R05R13R14R15R23R24
  23197376.820   121903030.49208  23197378.940    94989382.59348  23197379.280  
  91031528.40008
  23664210.580   124356283.00708  23664210.480    96901010.51546  23664213.560  
  92863478.04108
  24807790.760   130365804.32307  24807798.320   101583756.32947  24807799.160  
  97351091.40507
  20545008.460   107964889.45908  20545006.800    84128509.05948                
                
  23418682.620   123066026.49508  23418680.220    95895611.74646                
                
  20702759.620   108793928.32709  20702761.060    84774542.23849  20702759.900  
  81242268.84709
  22594615.640   118735552.86308  22594619.080    92521249.53248  22594618.500  
  88666186.88108
  25028963.780   131528091.44608  25028962.560   102489416.15145                
                
  22096298.860   116117012.44208  22096297.160    90480855.27348                
                
  22805040.280   119841436.48908  22805044.020    93383020.48348  22805044.140  
  89492038.17908
  23092781.320   123227485.78808  23092789.460    95843605.93205                
                
  19794612.860   105962140.10709  19794612.860    82415036.70208                
                
  20321030.760   108818227.94108  20321031.380    84636411.82208                
                
  24216608.540   129451655.82005  24216610.780   100684615.11905                
                
  22373983.420   119475825.42805  22373984.980    92925645.11904                
                
  20890008.960   111355671.82009  20890010.980    86610013.78107                
                
  22891770.480   122326787.37508  22891773.260    95143126.37005                
                
  22652956.960   121178156.80108                                                
                
  22649313.600   121116075.73208  22649318.920    94201453.91606                
                
 21 10 14 12 10 35.0000000  0 19G03G04G08G16G22G26G27G29G31G32R02R03
                                R04R05R13R14R15R23R24
  23197925.900   121905916.04508  23197928.080    94991631.12348  23197928.400  
  91033683.18208
  23661081.440   124339839.18908  23661081.320    96888197.21246  23661084.400  
  92851198.57208
  24804240.000   130347144.69107  24804247.540   101569216.36147  24804248.360  
  97337157.21907
  20544360.180   107961482.65409  20544358.520    84125854.46948                
                
  23419920.800   123072533.32008  23419918.480    95900682.03647                
                
  20704257.220   108801798.12609  20704258.660    84780674.60949  20704257.480  
  81248145.65209
  22591311.020   118718187.02308  22591314.460    92507717.79248  22591313.820  
  88653218.91108
  25031451.340   131541163.40208  25031450.040   102499602.17145                
                
  22097152.540   116121498.57709  22097150.880    90484351.01348                
                
  22807941.340   119856681.57308  22807945.060    93394899.80448  22807945.200  
  89503422.48108
  23096911.220   123249523.94208  23096919.460    95860746.78105                
                
  19796775.480   105973717.01109  19796775.540    82424041.00908                
                
  20319427.720   108809643.95509  20319428.360    84629735.44408                
                
  24212870.880   129431676.20805  24212873.300   100669075.49005                
                
  22375856.800   119485829.16205  22375858.340    92933425.86905                
                
  20890432.040   111357927.05609  20890434.060    86611767.91808                
                
  22890561.320   122320326.49008  22890564.240    95138101.33506                
                
  22651932.320   121172675.78508                                                
                
  22646685.700   121102023.33308  22646690.940    94190524.38307                
                
 21 10 14 12 10 40.0000000  0 19G03G04G08G16G22G26G27G29G31G32R02R03
                                R04R05R13R14R15R23R24
  23198477.200   121908813.07508  23198479.340    94993888.50248  23198479.720  
  91035846.53708
  23657952.700   124323397.66308  23657952.580    96875385.61746  23657955.660  
  92838920.82407
  24800688.680   130328482.14207  24800696.180   101554674.03847  24800697.020  
  97323220.86907
  20543714.280   107958088.35609  20543712.600    84123209.52348                
                
  23421160.160   123079046.39508  23421157.880    95905757.09846                
                
  20705756.020   108809674.27409  20705757.460    84786811.83249  20705756.260  
  81254027.19109
  22588007.140   118700825.11308  22588010.600    92494189.01848  22588009.920  
  88640253.88208
  25033940.560   131554244.22308  25033939.220   102509794.97145                
                
  22098006.380   116125985.70408  22098004.740    90487847.44348                
                
  22810843.800   119871934.08209  22810847.520    93406784.81149  22810847.680  
  89514812.31107
  23101041.260   123271562.83207  23101049.560    95877888.10105                
                
  19798941.440   105985311.65909  19798941.500    82433059.02608                
                
  20317828.360   108801079.47109  20317828.980    84623074.14108                
                
  24209134.220   129411701.97705  24209136.760   100653539.93506                
                
  22377729.460   119495828.98705  22377730.900    92941203.47005                
                
  20890855.480   111360184.30409  20890857.480    86613523.51808                
                
  22889353.020   122313870.05208  22889356.020    95133079.62306                
                
  22650910.520   121167209.79308                                                
                
  22644058.620   121087975.20707  22644063.780    94179598.06407                
                
 21 10 14 12 10 45.0000000  0 19G03G04G08G16G22G26G27G29G31G32R02R03
                                R04R05R13R14R15R23R24
  23199031.000   121911723.42408  23199033.140    94996156.33548  23199033.560  
  91038019.82208
  23654824.780   124306960.34308  23654824.640    96862577.35247  23654827.740  
  92826646.21008
  24797137.140   130309818.64707  24797144.660   101540131.04847  24797145.460  
  97309283.79607
  20543071.100   107954708.44609  20543069.440    84120575.86348                
                
  23422401.100   123085567.55808  23422398.860    95910838.54646                
                
  20707256.380   108817558.60609  20707257.820    84792955.50449  20707256.600  
  81259914.84209
  22584704.360   118683469.00508  22584707.860    92480664.83148  22584707.160  
  88627293.18108
  25036431.860   131567335.75208  25036430.540   102519996.19745                
                
  22098860.800   116130475.65408  22098859.180    90491346.14048                
                
  22813748.040   119887195.83009  22813751.760    93418677.10249  22813751.920  
  89526209.05108
  23105171.920   123293604.95608  23105180.240    95895032.01605                
                
  19801111.060   105996925.85509  19801111.120    82442092.31308                
                
  20316233.000   108792536.34208  20316233.600    84616429.51408                
                
  24205398.880   129391734.93305  24205401.600   100638010.06606                
                
  22379601.740   119505826.65805  22379603.100    92948979.47105                
                
  20891279.600   111362445.08909  20891281.620    86615281.93908                
                
  22888145.920   122307419.84308  22888148.980    95128062.83606                
                
  22649891.860   121161760.64908                                                
                
  22641432.700   121073933.38208  22641437.800    94168676.72807                
                
 21 10 14 12 10 50.0000000  0 19G03G04G08G16G22G26G27G29G31G32R02R03
                                R04R05R13R14R15R23R24
  23199587.100   121914645.68908  23199589.200    94998433.37348  23199589.700  
  91040202.05808
  23651697.400   124290525.86808  23651697.240    96849771.22746  23651700.340  
  92814373.71308
  24793585.200   130291152.96807  24793592.720   101525586.26847  24793593.480  
  97295345.08907
  20542430.400   107951341.52909  20542428.720    84117952.24548                
                
  23423643.280   123092095.46208  23423641.100    95915925.16447                
                
  20708758.020   108825449.76609  20708759.460    84799104.41149  20708758.240  
  81265807.59209
  22581402.440   118666117.38508  22581405.920    92467144.06648  22581405.240  
  88614335.82208
  25038924.920   131580436.67108  25038923.500   102530204.67045                
                
  22099715.460   116134967.06708  22099713.880    90494845.89648                
                
  22816653.760   119902465.51509  22816657.480    93430575.47949  22816657.680  
  89537611.70208
  23109302.880   123315648.72707  23109311.240    95912177.11906                
                
  19803284.080   106008558.34309  19803284.140    82451139.75208                
                
  20314641.380   108784013.18209  20314641.940    84609800.33208                
                
  24201664.620   129371773.75105  24201667.480   100622484.68706                
                
  22381473.380   119515820.82805  22381474.620    92956752.67105                
                
  20891704.160   111364708.25409  20891706.180    86617042.13308                
                
  22886939.800   122300974.65008  22886942.900    95123049.87306                
                
  22648876.160   121156327.12808                                                
                
  22638807.660   121059896.45808  22638812.740    94157759.11207                
                
 21 10 14 12 10 55.0000000  0 19G03G04G08G16G22G26G27G29G31G32R02R03
                                R04R05R13R14R15R23R24
  23200145.720   121917581.34908  23200147.860    95000720.89048  23200148.380  
  91042394.26008
  23648570.780   124274095.64508  23648570.700    96836968.45647  23648573.760  
  92802104.41008
  24790033.060   130272486.36307  24790040.660   101511040.81847  24790041.340  
  97281405.69307
  20541792.440   107947989.03409  20541790.780    84115339.91548                
                
  23424887.040   123098631.49708  23424884.900    95921018.15947                
                
  20710261.220   108833349.13109  20710262.680    84805259.76249  20710261.420  
  81271706.46709
  22578101.640   118648771.63508  22578105.120    92453627.92748  22578104.440  
  88601382.87008
  25041419.960   131593548.30507  25041418.440   102540421.54244                
                
  22100570.700   116139461.36808  22100569.140    90498347.95448                
                
  22819561.280   119917744.45709  22819564.980    93442481.12549  22819565.180  
  89549021.28808
  23113434.380   123337694.97807  23113442.760    95929324.21405                
                
  19805460.740   106020210.43709  19805460.840    82460202.48708                
                
  20313053.820   108775511.51408  20313054.320    84603187.91908                
                
  24197931.760   129351820.03104  24197934.720   100606965.11905                
                
  22383344.580   119525812.98205  22383345.800    92964524.36305                
                
  20892129.400   111366975.19309  20892131.460    86618805.31807                
                
  22885734.860   122294535.75008  22885738.000    95118041.85006                
                
  22647863.620   121150910.53208                                                
                
  22636183.800   121045865.74808  22636188.880    94146846.38606                
                
 21 10 14 12 11  0.0000000  0 19G03G04G08G16G22G26G27G29G31G32R02R03
                                R04R05R13R14R15R23R24
  23200706.420   121920527.80508  23200708.560    95003016.87948  23200709.080  
  91044594.52208
  23645444.540   124257667.16408  23645444.500    96824167.12046  23645447.500  
  92789836.38808
  24786480.300   130253816.43806  24786487.960   101496492.85546  24786488.560  
  97267463.82807
  20541156.760   107944648.42109  20541155.100    84112736.89848                
                
  23426131.860   123105173.13108  23426129.780    95926115.58146                
                
  20711765.520   108841254.17309  20711766.980    84811419.59449  20711765.700  
  81277609.58509
  22574801.480   118631429.26908  22574804.980    92440114.47548  22574804.240  
  88588432.41208
  25043916.600   131606668.13708  25043915.060   102550644.87244                
                
  22101425.980   116143956.02108  22101424.480    90501850.33048                
                
  22822470.080   119933030.15509  22822473.780    93454392.09949  22822473.960  
  89560435.89308
  23117566.040   123359742.17407  23117574.460    95946472.10205                
                
  19807640.580   106031879.55309  19807640.740    82469278.52508                
                
  20311469.760   108767028.69009  20311470.220    84596590.22608                
                
  24194199.840   129331871.14904  24194202.900   100591449.38606                
                
  22385214.980   119535800.52805  22385216.140    92972292.51205                
                
  20892554.860   111369243.32009  20892556.980    86620569.48608                
                
  22884530.600   122288100.55208  22884533.780    95113036.76906                
                
  22646853.760   121145508.30408                                                
                
  22633560.700   121031838.89908  22633565.760    94135936.72007                
                
 21 10 14 12 11  5.0000000  0 19G03G04G08G16G22G26G27G29G31G32R02R03
                                R04R05R13R14R15R23R24
  23201269.660   121923487.55908  23201271.760    95005323.13048  23201272.320  
  91046804.72008
  23642319.100   124241242.90808  23642319.060    96811368.94147  23642322.060  
  92777571.53007
  24782927.360   130235145.65206  24782935.080   101481944.10446  24782935.600  
  97253521.30607
  20540523.780   107941322.12009  20540522.140    84110144.93048                
                
  23427378.180   123111722.80408  23427376.200    95931219.14547                
                
  20713271.380   108849167.34409  20713272.820    84817585.65349  20713271.520  
  81283518.78009
  22571502.440   118614092.75208  22571505.940    92426605.47448  22571505.200  
  88575486.35108
  25046415.280   131619798.63907  25046413.800   102560876.36744                
                
  22102281.800   116148453.46908  22102280.320    90505354.78748                
                
  22825380.600   119948325.08308  22825384.320    93466310.15749  22825384.500  
  89571857.40908
  23121698.180   123381791.85407  23121706.560    95963621.81505                
                
  19809824.060   106043568.23509  19809824.260    82478369.67008                
                
  20309889.700   108758567.26508  20309890.100    84590009.06708                
                
  24190469.140   129311929.38104  24190472.380   100575939.11206                
                
  22387084.900   119545785.98905  22387086.060    92980058.93805                
                
  20892981.000   111371515.00409  20892983.140    86622336.30508                
                
  22883327.540   122281671.65508  22883330.660    95108036.50106                
                
  22645847.040   121140122.96708                                                
                
  22630938.740   121017818.39008  22630943.780    94125031.87507                
                
 21 10 14 12 11 10.0000000  0 19G03G04G08G16G22G26G27G29G31G32R02R03
                                R04R05R13R14R15R23R24
  23201835.180   121926459.34708  23201837.240    95007638.82748  23201837.800  
  91049023.90108
  23639194.240   124224821.69208  23639194.200    96798573.20147  23639197.180  
  92765308.91608
  24779374.020   130216472.79806  24779381.820   101467393.82046  24779382.260  
  97239577.23907
  20539893.320   107938008.94109  20539891.700    84107563.25748                
                
  23428625.800   123118279.34108  23428623.920    95936328.15346                
                
  20714778.520   108857087.44009  20714779.980    84823757.17849  20714778.660  
  81289433.12509
  22568204.280   118596760.92008  22568207.760    92413100.20248  22568207.040  
  88562543.78208
  25048915.720   131632938.61108  25048914.200   102571115.34345                
                
  22103137.920   116152952.56009  22103136.500    90508860.59648                
                
  22828292.660   119963627.99009  22828296.440    93478234.49549  22828296.580  
  89583284.87908
  23125830.580   123403843.23407  23125838.980    95980772.91705                
                
  19812010.960   106055275.21709  19812011.220    82487475.11308                
                
  20308313.380   108750126.00908  20308313.760    84583443.66908                
                
  24186739.840   129291993.90304  24186743.040   100560433.74206                
                
  22388954.240   119555768.14205  22388955.340    92987822.85705                
                
  20893407.580   111373789.12309  20893409.760    86624105.10008                
                
  22882125.400   122275247.79108  22882128.500    95103040.20406                
                
  22644843.220   121134753.39608                                                
                
  22628317.720   121003802.92008  22628322.780    94114131.01507                
                
 21 10 14 12 11 15.0000000  0 19G03G04G08G16G22G26G27G29G31G32R02R03
                                R04R05R13R14R15R23R24
  23202403.000   121929443.26708  23202405.020    95009963.95348  23202405.580  
  91051252.15308
  23636069.960   124208403.57408  23636069.920    96785779.87247  23636072.880  
  92753048.63107
  24775820.280   130197797.80706  24775828.160   101452841.85146  24775828.520  
  97225631.60907
  20539265.360   107934708.96809  20539263.740    84104991.85348                
                
  23429874.740   123124842.76508  23429872.920    95941442.49946                
                
  20716287.020   108865014.51309  20716288.460    84829934.11749  20716287.120  
  81295352.69509
  22564907.020   118579433.82308  22564910.520    92399598.59048  22564909.780  
  88549604.73808
  25051417.980   131646088.03408  25051416.360   102581361.67944                
                
  22103994.380   116157453.32708  22103992.940    90512367.69648                
                
  22831206.260   119978938.96709  22831210.080    93490165.10349  22831210.200  
  89594718.37708
  23129963.280   123425896.43307  23129971.700    95997925.41605                
                
  19814201.280   106067000.50609  19814201.620    82496594.77408                
                
  20306740.860   108741704.97408  20306741.180    84576893.97008                
                
  24183011.580   129272064.41405  24183014.800   100544933.06406                
                
  22390822.980   119565747.03905  22390824.020    92995584.22205                
                
  20893834.640   111376065.76109  20893836.880    86625875.82308                
                
  22880924.200   122268829.02008  22880927.300    95098047.84706                
                
  22643842.360   121129399.67608                                                
                
  22625697.700   120989792.68508  22625702.780    94103234.21607                
                
 21 10 14 12 11 20.0000000  0 19G03G04G08G16G22G26G27G29G31G32R02R03
                                R04R05R13R14R15R23R24
  23202973.160   121932439.50408  23202975.160    95012298.62248  23202975.700  
  91053489.58908
  23632946.320   124191988.74808  23632946.280    96772989.04346  23632949.220  
  92740790.80608
  24772266.220   130179120.97506  24772274.160   101438288.40646  24772274.460  
  97211684.58307
  20538639.960   107931422.35909  20538638.320    84102430.80948                
                
  23431125.060   123131413.25708  23431123.220    95946562.30646                
                
  20717796.860   108872948.71609  20717798.280    84836116.56349  20717796.940  
  81301277.58209
  22561610.700   118562111.66008  22561614.160    92386100.77848  22561613.440  
  88536669.38208
  25053922.080   131659247.13908  25053920.380   102591615.49744                
                
  22104851.180   116161955.95209  22104849.740    90515876.18147                
                
  22834121.460   119994258.16809  22834125.240    93502102.07549  22834125.360  
  89606158.01708
  23134096.320   123447951.51907  23134104.720    96015079.33805                
                
  19816395.120   106078744.38609  19816395.480    82505728.84908                
                
  20305172.140   108733304.42908  20305172.420    84570360.16908                
                
  24179284.620   129252141.51905  24179287.800   100529437.39806                
                
  22392691.080   119575722.79505  22392692.080    93003343.11604                
                
  20894262.200   111378345.05909  20894264.480    86627648.57107                
                
  22879723.980   122262415.56808  22879727.080    95093059.57406                
                
  22642844.520   121124061.89408                                                
                
  22623078.720   120975787.95308  22623083.780    94092341.63806                
                
 21 10 14 12 11 25.0000000  0 19G03G04G08G16G22G26G27G29G31G32R02R03
                                R04R05R13R14R15R23R24
  23203545.560   121935447.51808  23203547.540    95014642.54648  23203548.060  
  91055735.81708
  23629823.220   124175576.74408  23629823.160    96760200.49546  23629826.100  
  92728535.07907
  24768711.700   130160441.91506  24768719.700   101423733.30046  24768719.980  
  97197735.89307
  20538017.000   107928148.61109  20538015.380    84099879.86448                
                
  23432376.620   123137990.29908  23432374.800    95951687.28847                
                
  20719307.960   108880889.55309  20719309.380    84842304.25549  20719308.020  
  81307207.43809
  22558315.260   118544793.98508  22558318.700    92372606.53148  22558317.980  
  88523737.37908
  25056427.860   131672415.29908  25056426.180   102601876.42345                
                
  22105708.260   116166459.94508  22105706.800    90519385.80948                
                
  22837038.100   120009585.11009  22837041.880    93514045.14749  22837041.960  
  89617603.42908
  23138229.600   123470007.60508  23138237.960    96032234.10705                
                
  19818592.320   106090506.25309  19818592.720    82514876.98208                
                
  20303607.180   108724923.86308  20303607.400    84563841.96908                
                
  24175558.620   129232224.44604  24175561.920   100513946.42606                
                
  22394558.460   119585694.87105  22394559.460    93011099.18805                
                
  20894690.200   111380626.59909  20894692.500    86629423.13007                
                
  22878524.620   122256006.93408  22878527.740    95088075.11206                
                
  22641849.560   121118739.64708                                                
                
  22620460.620   120961787.96508  22620465.680    94081452.81806                
                
 21 10 14 12 11 30.0000000  0 19G03G04G08G16G22G26G27G29G31G32R02R03
                                R04R05R13R14R15R23R24
  23204120.540   121938469.02708  23204122.500    95016997.00348  23204122.980  
  91057992.13508
  23626700.980   124159169.28308  23626700.960    96747415.50647  23626703.840  
  92716282.75708
  24765157.080   130141762.25006  24765165.140   101409177.72746  24765165.400  
  97183786.76307
  20537396.800   107924889.43509  20537395.200    84097340.29848                
                
  23433629.740   123144575.61508  23433628.020    95956818.73046                
                
  20720820.660   108888838.73709  20720822.060    84848498.47249  20720820.680  
  81313143.51709
  22555020.980   118527482.49808  22555024.440    92359117.13048  22555023.700  
  88510809.99908
  25058935.740   131685594.28208  25058934.000   102612145.80343                
                
  22106565.940   116170967.03708  22106564.440    90522897.86947                
                
  22839956.500   120024921.45508  22839960.340    93525995.56448  22839960.380  
  89629055.86508
  23142363.500   123492067.03708  23142371.880    96049391.49705                
                
  19820793.200   106102287.79509  19820793.640    82524040.43908                
                
  20302046.180   108716564.94508  20302046.440    84557340.63408                
                
  24171834.020   129212315.07505  24171837.480   100498461.37905                
                
  22396425.620   119595665.12605  22396426.500    93018853.87005                
                
  20895118.940   111382911.96009  20895121.220    86631200.68607                
                
  22877326.460   122249604.60608  22877329.580    95083095.57006                
                
  22640857.840   121113434.69908                                                
                
  22617843.780   120947794.75908  22617848.920    94070569.30506                
                
 21 10 14 12 11 35.0000000  0 19G03G04G08G16G22G26G27G29G31G32R02R03
                                R04R05R13R14R15R23R24
  23204697.780   121941502.49308  23204699.740    95019360.71848  23204700.200  
  91060257.37208
  23623579.320   124142764.84108  23623579.280    96734632.81246  23623582.160  
  92704032.69208
  24761602.080   130123080.55206  24761610.140   101394620.51946  24761610.460  
  97169836.12108
  20536779.100   107921643.31809  20536777.480    84094810.83548                
                
  23434884.140   123151167.64208  23434882.500    95961955.33747                
                
  20722334.640   108896794.74209  20722336.040    84854697.93849  20722334.640  
  81319084.69009
  22551727.620   118510175.66908  22551731.080    92345631.29348  22551730.320  
  88497886.10408
  25061445.400   131698782.60207  25061443.460   102622422.41044                
                
  22107423.900   116175475.70009  22107422.400    90526411.09948                
                
  22842876.420   120040265.69109  22842880.260    93537952.07149  22842880.320  
  89640514.20308
  23146497.620   123514127.57008  23146506.020    96066549.69005                
                
  19822997.460   106114087.55809  19822997.940    82533218.01208                
                
  20300489.000   108708226.27708  20300489.240    84550854.98408                
                
  24168110.560   129192411.87905  24168114.160   100482981.09606                
                
  22398292.120   119605631.94005  22398292.900    93026605.83705                
                
  20895548.100   111385199.69109  20895550.360    86632980.02108                
                
  22876129.300   122243207.30808  22876132.480    95078119.89906                
                
  22639869.060   121108145.49208                                                
                
  22615227.940   120933806.71408  22615233.060    94059689.73707                
                
 21 10 14 12 11 40.0000000  0 19G03G04G08G16G22G26G27G29G31G32R02R03
                                R04R05R13R14R15R23R24
  23205277.360   121944548.20108  23205279.320    95021734.00448  23205279.740  
  91062531.77008
  23620458.340   124126363.75208  23620458.240    96721852.75046  23620461.120  
  92691785.13308
  24758046.740   130104397.11906  24758054.840   101380061.98247  24758055.180  
  97155884.16007
  20536163.920   107918410.54709  20536162.320    84092291.80548                
                
  23436139.920   123157766.68408  23436138.320    95967097.44646                
                
  20723849.980   108904757.84009  20723851.360    84860902.96749  20723849.940  
  81325031.16609
  22548435.180   118492873.87408  22548438.660    92332149.41949  22548437.880  
  88484965.96008
  25063956.920   131711980.57907  25063954.900   102632706.57543                
                
  22108282.260   116179986.27809  22108280.700    90529925.84148                
                
  22845797.920   120055618.12508  22845801.760    93549915.00248  22845801.840  
  89651978.67108
  23150632.140   123536190.13708  23150640.540    96083709.48305                
                
  19825205.180   106125905.70509  19825205.700    82542409.91208                
                
  20298935.620   108699908.01608  20298935.860    84544385.23608                
                
  24164388.360   129172515.10805  24164392.080   100467505.83606                
                
  22400157.960   119615595.60605  22400158.700    93034355.36505                
                
  20895977.740   111387489.97309  20895980.000    86634761.36408                
                
  22874933.140   122236815.28208  22874936.380    95073148.34206                
                
  22638883.260   121102872.27108                                                
                
  22612613.120   120919824.13908  22612618.260    94048814.45907                
                
 21 10 14 12 11 45.0000000  0 19G03G04G08G16G22G26G27G29G31G32R02R03
                                R04R05R13R14R15R23R24
  23205859.340   121947606.46108  23205861.300    95024117.05948  23205861.680  
  91064815.50808
  23617338.020   124109966.28108  23617337.920    96709075.49646  23617340.800  
  92679540.26308
  24754491.120   130085712.14207  24754499.220   101365502.23447  24754499.640  
  97141931.04907
  20535551.360   107915191.38309  20535549.740    84089783.37048                
                
  23437397.080   123164373.09408  23437395.480    95972245.28347                
                
  20725366.720   108912728.28609  20725368.080    84867113.71149  20725366.660  
  81330983.12109
  22545143.720   118475577.34609  22545147.220    92318671.62549  22545146.440  
  88472049.75308
  25066470.280   131725188.49107  25066468.220   102642998.43843                
                
  22109141.000   116184499.00809  22109139.420    90533442.25848                
                
  22848721.000   120070979.01408  22848724.880    93561884.49948  22848724.920  
  89663449.43008
  23154767.060   123558254.76708  23154775.460    96100870.87605                
                
  19827416.360   106137742.53609  19827416.940    82551616.33808                
                
  20297386.100   108691610.56508  20297386.380    84537931.66708                
                
  24160667.480   129152625.10205  24160671.260   100452035.85206                
                
  22402023.220   119625556.50805  22402024.020    93042102.73105                
                
  20896407.900   111389783.21009  20896410.200    86636544.99908                
                
  22873737.920   122230428.71208  22873741.240    95068181.03506                
                
  22637900.560   121097615.45708                                                
                
  22609999.340   120905847.31208  22610004.500    94037943.64207                
                
 21 10 14 12 11 50.0000000  0 19G03G04G08G16G22G26G27G29G31G32R02R03
                                R04R05R13R14R15R23R24
  23206443.480   121950676.02008  23206445.460    95026508.87648  23206445.800  
  91067107.70508
  23614218.160   124093571.26408  23614218.060    96696300.13447  23614220.920  
  92667297.23108
  24750935.040   130067024.56806  24750943.100   101350940.42547  24750943.580  
  97127976.02107
  20534941.140   107911984.67908  20534939.520    84087284.61048                
                
  23438655.360   123170985.56608  23438653.820    95977397.82247                
                
  20726884.640   108920704.90409  20726885.960    84873329.23349  20726884.540  
  81336939.69109
  22541853.080   118458284.95008  22541856.540    92305197.02048  22541855.780  
  88459136.62608
  25068985.320   131738405.08907  25068983.180   102653297.08443                
                
  22109999.960   116189012.73208  22109998.300    90536959.41348                
                
  22851645.460   120086347.15508  22851649.380    93573859.62148  22851649.380  
  89674925.60908
  23158902.100   123580320.17508  23158910.520    96118032.84805                
                
  19829630.840   106149596.94409  19829631.440    82560836.39108                
                
  20295840.220   108683332.69908  20295840.560    84531493.30408                
                
  24156947.660   129132740.63605  24156951.480   100436570.12606                
                
  22403887.900   119635513.47205  22403888.620    93049846.99705                
                
  20896838.400   111392078.06809  20896840.680    86638329.85607                
                
  22872543.560   122224046.46508  22872546.900    95063217.04406                
                
  22636920.680   121092373.74308                                                
                
  22607386.440   120891875.09608  22607391.620    94027076.37106                
                
 21 10 14 12 11 55.0000000  0 19G03G04G08G16G22G26G27G29G31G32R02R03
                                R04R05R13R14R15R23R24
  23207029.920   121953757.76408  23207031.940    95028910.26448  23207032.200  
  91069409.00208
  23611098.940   124077179.58108  23611098.820    96683527.43947  23611101.680  
  92655056.69408
  24747378.600   130048335.22906  24747386.680   101336377.30646  24747387.200  
  97114019.64908
  20534333.440   107908791.28308  20534331.860    84084796.29148                
                
  23439914.980   123177604.97408  23439913.500    95982555.82947                
                
  20728403.900   108928688.55109  20728405.200    84879550.29149  20728403.760  
  81342901.50909
  22538563.380   118440997.54608  22538566.840    92291726.37648  22538566.080  
  88446227.23008
  25071502.160   131751631.23806  25071499.960   102663603.23744                
                
  22110859.280   116193528.37308  22110857.580    90540478.13148                
                
  22854571.480   120101723.41208  22854575.420    93585841.13348  22854575.400  
  89686407.84808
  23163037.460   123602387.27807  23163045.920    96135196.20005                
                
  19831848.720   106161469.69709  19831849.400    82570070.78008                
                
  20294298.220   108675075.31909  20294298.560    84525070.91608                
                
  24153229.040   129112862.71905  24153232.980   100421109.57806                
                
  22405751.880   119645467.32305  22405752.680    93057588.91005                
                
  20897269.360   111394375.54009  20897271.660    86640116.81208                
                
  22871350.200   122217669.39108  22871353.580    95058257.14506                
                
  22635943.820   121087148.08608                                                
                
  22604774.520   120877908.28808  22604779.760    94016213.37507                
                
 21 10 14 12 12  0.0000000  0 19G03G04G08G16G22G26G27G29G31G32R02R03
                                R04R05R13R14R15R23R24
  23207618.820   121956852.46807  23207620.860    95031321.69847  23207621.100  
  91071719.96608
  23607980.500   124060791.99208  23607980.340    96670757.87947  23607983.240  
  92642819.21507
  24743822.000   130029644.89106  24743830.020   101321813.36746  24743830.640  
  97100062.55407
  20533728.440   107905611.94508  20533726.840    84082318.87648                
                
  23441176.060   123184232.05508  23441174.660    95987719.75147                
                
  20729924.620   108936679.96209  20729925.920    84885777.35549  20729924.480  
  81348869.12309
  22535274.780   118423715.94708  22535278.240    92278260.20748  22535277.480  
  88433322.15008
  25074020.900   131764867.64006  25074018.660   102673917.29844                
                
  22111719.080   116198046.63908  22111717.340    90543998.84248                
                
  22857499.180   120117108.51608  22857503.120    93597829.49748  22857503.120  
  89697896.71107
  23167173.320   123624456.98507  23167181.800    96152361.53605                
                
  19834070.180   106173361.58909  19834070.920    82579320.01508                
                
  20292760.220   108666839.27108  20292760.560    84518665.09408                
                
  24149511.660   129092991.91405  24149515.760   100405654.52406                
                
  22407615.500   119655418.67505  22407616.240    93065328.84805                
                
  20897700.920   111396676.31009  20897703.220    86641906.29908                
                
  22870157.940   122211298.22708  22870161.360    95053301.80606                
                
  22634970.100   121081939.28408                                                
                
  22602163.760   120863947.87508  22602169.120    94005355.32207                
                
 21 10 14 12 12  5.0000000  0 19G03G04G08G16G22G26G27G29G31G32R02R03
                                R04R05R13R14R15R23R24
  23208209.940   121959958.93208  23208212.020    95033742.31448  23208212.240  
  91074039.71508
  23604862.600   124044407.35908  23604862.460    96657990.64047  23604865.360  
  92630583.94307
  24740265.000   130010952.44106  24740273.000   101307247.78747  24740273.660  
  97086103.86607
  20533125.900   107902445.50209  20533124.280    84079851.52048                
                
  23442438.380   123190865.61708  23442437.020    95992888.75546                
                
  20731446.580   108944677.97909  20731447.880    84892009.58049  20731446.440  
  81354841.67409
  22531987.060   118406438.95608  22531990.520    92264797.64549  22531989.780  
  88420420.54208
  25076541.440   131778113.22806  25076539.200   102684238.57644                
                
  22112579.160   116202566.29809  22112577.400    90547520.66448                
                
  22860428.360   120132501.33808  22860432.300    93609823.88748  22860432.280  
  89709391.33108
  23171309.320   123646527.51307  23171317.820    96169527.52705                
                
  19836294.980   106185271.35909  19836295.800    82588583.16908                
                
  20291225.960   108658623.27409  20291226.320    84512274.87208                
                
  24145795.600   129073127.32406  24145799.660   100390204.28406                
                
  22409478.340                    22409479.120    93073064.04814                
                
  20898132.900   111398979.20609  20898135.200    86643697.45707                
                
  22868966.560   122204931.81108  22868969.960    95048350.17106                
                
  22633999.280   121076746.18308                                                
                
  22599553.940   120849992.51108  22599559.380    93994501.20006                
                
 21 10 14 12 12 10.0000000  0 19G03G04G08G16G22G26G27G29G31G32R02R03
                                R04R05R13R14R15R23R24
  23208803.500   121963078.03507  23208805.540    95036172.77147  23208805.800  
  91076368.91108
  23601745.460   124028026.56208  23601745.300    96645226.37547  23601748.200  
  92618351.53008
  24736707.760   129992258.74006  24736715.740   101292681.21846  24736716.440  
  97072144.23407
  20532525.960   107899292.81208  20532524.340    84077394.87348                
                
  23443702.080   123197506.54208  23443700.760    95998063.47747                
                
  20732969.980   108952683.46109  20732971.280    84898247.60949  20732969.820  
  81360819.79009
  22528700.400   118389167.48608  22528703.840    92251339.37548  22528703.100  
  88407523.04108
  25079063.840   131791368.76306  25079061.660   102694567.57944                
                
  22113439.660   116207088.27708  22113437.880    90551044.26848                
                
  22863359.160   120147902.69308  22863363.100    93621824.91448  22863363.080  
  89720892.31508
  23175445.700   123668600.24307  23175454.200    96186695.21405                
                
  19838523.280   106197199.91009  19838524.200    82597860.91608                
                
  20289695.620   108650428.26808  20289695.980    84505900.97708                
                
  24142080.840   129053269.82905  24142084.860   100374759.55206                
                
  22411340.780   119675308.70715  22411341.560    93080799.21205                
                
  20898565.420   111401285.13009  20898567.720    86645490.96007                
                
  22867776.240   122198571.06908  22867779.600    95043402.94306                
                
  22633031.560   121071569.57408                                                
                
  22596945.320   120836043.25308  22596950.800    93983651.80607                
                
 21 10 14 12 12 15.0000000  0 19G03G04G08G16G22G26G27G29G31G32R02R03
                                R04R05R13R14R15R23R24
  23209399.160   121966208.19607  23209401.180    95038611.84647  23209401.480  
  91078706.35808
  23598628.740   124011648.05908  23598628.560    96632463.91347  23598631.500  
  92606120.83907
  24733149.980   129973562.14606  24733157.920   101278112.42746  24733158.680  
  97058182.48207
  20531928.340   107896152.31608  20531926.720    84074947.73948                
                
  23444966.920   123204153.30808  23444965.600    96003242.76147                
                
  20734494.500   108960694.84609  20734495.780    84904490.25349  20734494.320  
  81366802.32609
  22525414.500   118371900.00508  22525417.940    92237884.22148  22525417.180  
  88394628.52808
  25081587.840   131804632.79306  25081585.700   102704903.19344                
                
  22114300.340   116211611.02908  22114298.540    90554568.49648                
                
  22866291.300   120163311.05408  22866295.240    93633831.41248  22866295.220  
  89732398.53108
  23179582.240   123690673.66407  23179590.740    96203863.44705                
                
  19840754.840   106209145.70308  19840755.800    82607152.08708                
                
  20288168.900   108642252.64708  20288169.240    84499542.15908                
                
  24138367.220   129033417.81906  24138371.060   100359319.09806                
                
  22413202.380   119685249.58405  22413203.180    93088531.00705                
                
  20898998.220   111403592.44009  20899000.520    86647285.54308                
                
  22866586.700   122192214.29308  22866589.940    95038458.80206                
                
  22632066.620   121066407.99908                                                
                
  22594337.540   120822098.51708  22594343.020    93972805.94407                
                
 21 10 14 12 12 20.0000000  0 19G03G04G08G16G22G26G27G29G31G32R02R03
                                R04R05R13R14R15R23R24
  23209997.420   121969351.96408  23209999.400    95041061.50447  23209999.740  
  91081053.97408
  23595512.940   123995274.44908  23595512.780    96619705.23147  23595515.700  
  92593893.78008
  24729592.120   129954865.33706  24729600.060   101263543.41546  24729600.880  
  97044220.53908
  20531333.520   107893026.56308  20531331.920    84072512.06548                
                
  23446233.360   123210808.42208  23446232.000    96008428.52247                
                
  20736020.620   108968714.68009  20736021.900    84910739.45649  20736020.440  
  81372791.16809
  22522129.820   118354639.05808  22522133.300    92224434.13548  22522132.520  
  88381738.88608
  25084113.960   131817907.79806  25084111.860   102715247.33444                
                
  22115161.620   116216137.10208  22115159.820    90558095.28148                
                
  22869225.240   120178728.95508  22869229.200    93645845.31848  22869229.200  
  89743911.88308
  23183719.320   123712749.79507  23183727.740    96221033.76705                
                
  19842990.080   106221111.21109  19842991.080    82616458.56008                
                
  20286646.260   108634099.08908  20286646.600    84493200.48108                
                
  24134655.000   129013573.84905  24134658.780   100343884.89106                
                
  22415063.600   119695188.85405  22415064.480    93096261.53205                
                
  20899431.760   111405903.75909  20899434.060    86649083.22708                
                
  22865398.400   122185864.19708  22865401.460    95033519.83605                
                
  22631104.940   121061263.98808                                                
                
  22591731.040   120808160.83908  22591736.580    93961965.55507                
                
 21 10 14 12 12 25.0000000  0 19G03G04G08G16G22G26G27G29G31G32R02R03
                                R04R05R13R14R15R23R24
  23210597.760   121972506.79807  23210599.700    95043519.80047  23210600.080  
  91083409.84308
  23592397.580   123978903.13708  23592397.400    96606948.35347  23592400.360  
  92581668.45608
  24726033.700   129936165.75606  24726041.680   101248972.25946  24726042.520  
  97030256.53107
  20530741.020   107889913.00208  20530739.420    84070085.89548                
                
  23447500.920   123217469.29708  23447499.460    96013618.78046                
                
  20737547.860   108976740.38509  20737549.120    84916993.23649  20737547.700  
  81378784.39409
  22518845.920   118337382.14908  22518849.420    92210987.19548  22518848.620  
  88368852.25708
  25086641.660   131831191.15606  25086639.660   102725598.00545                
                
  22116023.080   116220663.97808  22116021.260    90561622.70148                
                
  22872160.520   120194153.85008  22872164.460    93657864.67648  22872164.480  
  89755430.43808
  23187856.560   123734826.70607  23187864.880    96238204.69405                
                
  19845228.540   106233093.92409  19845229.600    82625778.43108                
                
  20285127.220   108625964.92408  20285127.600    84486873.89808                
                
  24130943.800   128993735.37405  24130947.540   100328454.98206                
                
  22416924.080   119705123.78305  22416925.000    93103988.68905                
                
  20899865.560   111408216.48809  20899867.880    86650881.99508                
                
  22864210.840   122179518.15908  22864213.700    95028584.02506                
                
  22630146.100   121056135.06008                                                
                
  22589125.420   120794227.76808  22589131.020    93951128.75807                
                
 21 10 14 12 12 30.0000000  0 19G03G04G08G16G22G26G27G29G31G32R02R03
                                R04R05R13R14R15R23R24
  23211200.240   121975672.72308  23211202.120    95045986.79848  23211202.520  
  91085773.99008
  23589282.700   123962534.18008  23589282.500    96594193.37446  23589285.480  
  92569444.88407
  24722474.800   129917463.37406  24722482.820   101234399.00946  24722483.620  
  97016290.45707
  20530150.860   107886811.59508  20530149.260    84067669.26848                
                
  23448769.580   123224135.95108  23448768.060    96018813.62446                
                
  20739076.200   108984771.97609  20739077.500    84923251.67248  20739076.060  
  81384782.01009
  22515562.800   118320129.25508  22515566.300    92197543.46448  22515565.500  
  88355968.63808
  25089170.980   131844482.90906  25089169.100   102735955.26044                
                
  22116884.680   116225191.68808  22116882.860    90565150.84248                
                
  22875097.120   120209585.71108  22875101.080    93669889.53048  22875101.060  
  89766954.20907
  23191993.780   123756903.67807  23192002.040    96255375.74905                
                
  19847470.200   106245093.79909  19847471.320    82635111.71508                
                
  20283611.800   108617850.32008  20283612.280    84480562.59408                
                
  24127233.660   128973902.37105  24127237.300   100313029.35606                
                
  22418783.780   119715054.33105  22418784.700    93111712.51204                
                
  20900299.640   111410530.65809  20900302.020    86652681.97207                
                
  22863024.060   122173176.14408  22863026.760    95023651.42205                
                
  22629190.020   121051021.15008                                                
                
  22586520.680   120780299.20608  22586526.340    93940295.53307                
                
