     2.11           OBSERVATION DATA    M (MIXED)           RINEX VERSION / TYPE
NetR9 5.41          SMO                 20190607 050325 UTC PGM / RUN BY / DATE
HKQT                                                        MARKER NAME
23013M001                                                   MARKER NUMBER
SMO                 Lands Department HKSAR                  OBSERVER / AGENCY
5247K53928          TRIMBLE NETR9       5.41                REC # / TYPE / VERS
4624A16997          TRM59800.00     SCIT                    ANT # / TYPE
 -2421567.8916  5384910.5631  2404264.3943                  APPROX POSITION XYZ
        0.0083        0.0000        0.0000                  ANTENNA: DELTA H/E/N
     1     1                                                WAVELENGTH FACT L1/2
    11    C1    L1    S1    P1    C2    L2    S2    P2    C5# / TYPES OF OBSERV
          L5    S5                                          # / TYPES OF OBSERV
     5.000                                                  INTERVAL
  2019    06    07    04    00   00.0000000     GPS         TIME OF FIRST OBS
  2019    06    07    04    59   55.0000000     GPS         TIME OF LAST OBS
L2C CARRIER PHASE MEASUREMENTS: PHASE SHIFTS REMOVED        COMMENT
L2C PHASE MATCHES L2 P PHASE                                COMMENT
GLONASS C/A & P PHASE MATCH: PHASE SHIFTS REMOVED           COMMENT
    18                                                      LEAP SECONDS
                                                            COMMENT
EPOCH COUNT     m00  m10  m20  m30  m40  m50                COMMENT
               ---- ---- ---- ---- ---- ----                COMMENT
          E     120  120  120  120  120  120                COMMENT
                                                            END OF HEADER
 19  6  7  4  0  0.0000000  0 18G 7R20G18G 8G27R16G11R19G 9R 9G17G16  .000000000
                                R21G 1G30R10G22G28
  20248938.57809 106409123.32409        51.500                    20248944.48409
  82916063.34049        43.600    20248944.77749                                
                
  19560951.70308 104601228.52908        47.200    19560951.70308  19560957.27309
  81356531.54109        49.100    19560956.89109                                
                
  20336593.00009 106869548.42709        50.600                                  
  83274985.18949        42.000    20336600.32049                                
                
  22299200.12508 117183155.70108        45.800                    22299209.93007
  91311510.25249        35.900    22299209.68449  22299208.70309  87506859.36009
        48.700  
  24955735.11704 131143383.13904        34.200                    24955746.82805
 102189540.25945        18.300    24955745.60245  24955745.07407  97931628.47507
        42.000  
  21306151.93807 113813553.67507        44.000    21306152.21507  21306155.52306
  88521684.86806        39.900    21306157.15206                                
                
  20258383.98408 106458653.15208        46.500                                  
  82954734.47949        42.000    20258389.47749                                
                
  21232035.46105 113577114.45405        37.700    21232032.79305  21232037.00007
  88337718.02607        41.300    21232037.02007                                
                
  23988892.23406 126062453.12906        40.600                    23988900.03904
  98230507.19946        20.900    23988900.54346  23988900.54706  94137567.30306
        39.500  
  19515073.85909 104209427.97809        52.300    19515073.10509  19515076.02709
  81051791.06809        50.300    19515076.34809                                
                
  24438411.93001                        27.600                    24438421.72301
 100071250.45701        28.700                                                  
                
  25160331.95303 132218472.81903        33.500                                  
 103027370.73845        15.600    25160341.52745                                
                
  22739146.10208 121681768.95808        46.500    22739145.14107  22739151.39506
  94641387.36106        40.500    22739151.23406                                
                
  20322025.18009 106793040.83509        49.500                    20322034.99209
  83215352.24049        43.800    20322035.22749  20322033.42209  79748033.69009
        54.100  
  21626187.53109 113646412.87709        48.800                    21626196.52308
  88555673.73649        38.400    21626196.28549  21626195.85209  84865856.51109
        50.700  
  22048948.37508 117533314.85408        46.600    22048947.57808  22048954.50805
  91414821.98005        35.600    22048955.36305                                
                
  24043209.22705 126347994.22005        36.000                                  
  98452941.69546        20.600    24043215.60246                                
                
  24271146.03105 127545741.91605        36.700                                  
  99386329.75045        19.300    24271152.66045                                
                
 19  6  7  4  0  5.0000000  0 18G 7R20G18G 8G27R16G11R19G 9R 9G17G16  .000000000
                                R21G 1G30R10G22G28
  20248565.57809 106407162.97409        50.400                    20248571.51209
  82914535.78849        43.800    20248571.70349                                
                
  19560823.43008 104600541.74508        47.800    19560823.14108  19560829.23009
  81355997.37309        48.600    19560828.41009                                
                
  20337030.88309 106871848.75709        50.200                                  
  83276777.65249        42.300    20337038.15649                                
                
  22301260.60208 117193982.88308        45.800                    22301270.21908
  91319947.00449        35.400    22301270.01649  22301268.90209  87514944.59609
        48.700  
  24958308.07003 131156906.07403        33.900                    24958319.14105
 102200077.57145        19.600    24958319.02345  24958319.14107  97941726.78107
        41.900  
  21308491.87507 113826046.50307        44.600    21308491.00007  21308493.68007
  88531401.49506        40.500    21308496.07406                                
                
  20258450.23408 106459003.04608        46.400                                  
  82955007.12749        41.500    20258456.10249                                
                
  21235224.57005 113594184.46605        37.800    21235223.91405  21235228.66007
  88350994.69007        41.800    21235228.07407                                
                
  23990923.00006 126073125.12606        40.500                    23990930.66003
  98238823.06046        20.400    23990931.12546  23990931.62906  94145536.64906
        39.500  
  19513646.36709 104201806.06909        52.500    19513645.84409  19513648.39109
  81045862.91109        50.300    19513649.07009                                
                
  24436622.38301                        28.900                    24436632.65201
 100063920.58301        30.700                                                  
                
  25162143.24203 132227993.12503        32.400                                  
 103034789.08445        16.300    25162153.33245                                
                
  22736127.07808 121665612.59208        45.800    22736125.48007  22736131.98807
  94628821.27506        40.600    22736131.94906                                
                
  20320764.41409 106786414.71709        49.200                    20320774.16409
  83210189.02949        44.000    20320774.33649  20320772.50009  79743085.61709
        54.100  
  21624110.85209 113635501.53909        48.500                    21624120.25408
  88547171.39649        39.400    21624119.65249  21624119.43809  84857708.43509
        50.500  
  22045497.50008 117514916.85808        47.000    22045496.28908  22045503.60205
  91400512.43805        35.800    22045503.97305                                
                
  24041434.96904 126338669.68404        34.700                                  
  98445675.81145        19.600    24041440.99245                                
                
  24269390.64805 127536518.47505        36.700                                  
  99379142.63245        19.300    24269397.80945                                
                
 19  6  7  4  0 10.0000000  0 18G 7R20G18G 8G27R16G11R19G 9R 9G17G16  .000000000
                                R21G 1G30R10G22G28
  20248195.51609 106405219.26109        50.500                    20248201.48009
  82913021.20349        43.900    20248201.89149                                
                
  19560698.46108 104599873.52408        47.700    19560698.38308  19560704.45709
  81355477.64109        48.900    19560703.33609                                
                
  20337471.81309 106874166.40709        50.300                                  
  83278583.61049        41.900    20337479.26649                                
                
  22303321.08608 117204810.44608        46.000                    22303331.09407
  91328384.06249        35.100    22303330.47349  22303329.45309  87523030.09009
        48.600  
  24960880.60204 131170425.28204        34.300                    24960891.57405
 102210612.02345        17.400    24960891.38345  24960891.41807  97951822.33507
        42.100  
  21310832.67207 113838553.21107        44.300    21310832.44907  21310835.67607
  88541128.91306        40.100    21310837.31606                                
                
  20258519.71108 106459366.91808        46.600                                  
  82955290.65649        42.300    20258525.39549                                
                
  21238418.14805 113611260.39505        37.900    21238416.36305  21238419.79707
  88364275.96907        41.200    21238420.30507                                
                
  23992952.09406 126083795.90206        39.900                    23992961.04303
  98247137.97445        19.000    23992961.06345  23992962.15606  94153505.10006
        38.900  
  19512221.92209 104194198.68909        52.600    19512221.03909  19512223.85209
  81039946.06009        50.700    19512224.45709                                
                
  24434833.25001                        27.600                    24434844.50801
 100056595.74901        30.200                                                  
                
  25163954.95302                        31.800                                  
                        15.600    25163965.39545                                
                
  22733108.82808 121649466.88608        45.900    22733108.50007  22733115.14807
  94616263.52606        40.400    22733114.59006                                
                
  20319506.85209 106779805.10009        49.300                    20319516.25409
  83205038.68049        43.900    20319516.49649  20319514.63709  79738149.86709
        54.100  
  21622036.38308 113624602.12908        47.600                    21622046.24608
  88538678.35149        38.400    21622045.91849  21622045.34009  84849569.27009
        50.700  
  22042046.12508 117496521.02408        46.600    22042045.31308  22042051.51605
  91386204.56505        36.000    22042053.05505                                
                
  24039659.70305 126329345.39905        35.600                                  
  98438410.11646        20.100    24039666.71946                                
                
  24267634.26605 127527291.60905        36.300                                  
  99371952.87046        20.100    24267642.04746                                
                
 19  6  7  4  0 15.0000000  0 18G 7R20G18G 8G27R16G11R19G 9R 9G17G16  .000000000
                                R21G 1G30R10G22G28
  20247828.92209 106403292.23009        50.900                    20247835.02709
  82911519.61549        43.800    20247834.97349                                
                
  19560577.27308 104599223.88308        47.500    19560576.52308  19560582.99609
  81354972.36309        48.900    19560581.82009                                
                
  20337916.26609 106876501.41409        50.800                                  
  83280403.10249        42.200    20337923.57049                                
                
  22305381.47708 117215638.37008        46.400                    22305391.20707
  91336821.40649        35.500    22305390.89549  22305389.81609  87531115.87209
        48.900  
  24963452.62505 131183940.79005        35.100                    24963464.07805
 102221143.59145        19.000    24963463.44945  24963462.96107  97961915.00607
        41.300  
  21313176.58607 113851073.70207        43.500    21313176.20707  21313179.53906
  88550867.05106        39.500    21313181.22706                                
                
  20258591.43808 106459744.76108        46.400                                  
  82955585.07549        41.600    20258597.30149                                
                
  21241612.00806 113628342.35706        38.100    21241609.32405  21241612.93007
  88377561.93306        40.700    21241613.48406                                
                
  23994983.33606 126094465.46506        40.500                    23994990.73803
  98255451.95045        19.000    23994991.27045  23994991.67606  94161472.64506
        38.400  
  19510799.67209 104186605.78909        52.200    19510799.24609  19510801.89809
  81034040.46609        50.600    19510802.46109                                
                
  24433046.37501 128396502.66701        28.900                    24433056.06301
 100049276.00511        24.500                                                  
                
  25165768.77302 132247043.05402        31.000                                  
 103049633.14443        13.900    25165778.97343                                
                
  22730094.07808 121633332.05508        46.100    22730093.37508  22730099.55907
  94603714.19006        40.600    22730099.71506                                
                
  20318251.93009 106773211.99609        49.100                    20318261.60909
  83199901.19549        43.900    20318261.94949  20318260.02709  79733226.44209
        54.100  
  21619964.85209 113613714.70909        48.500                    21619974.17608
  88530194.65449        39.100    21619973.97349  21619973.50809  84841439.06309
        50.600  
  22038595.14808 117478127.12908        46.000    22038594.27707  22038602.10905
  91371898.21905        36.000    22038602.68805                                
                
  24037885.71905 126320021.39805        35.200                                  
  98431144.66846        20.900    24037892.17246                                
                
  24265878.21905 127518061.32505        36.800                                  
  99364760.45446        20.600    24265885.75846                                
                
 19  6  7  4  0 20.0000000  0 18G 7R20G18G 8G27R16G11R19G 9R 9G17G16  .000000000
                                R21G 1G30R10G22G28
  20247465.28109 106401381.84709        50.700                    20247471.55509
  82910031.00549        43.900    20247471.64149                                
                
  19560458.35208 104598592.82508        47.000    19560458.46908  19560464.87909
  81354481.54009        49.100    19560463.93809                                
                
  20338363.80509 106878853.85309        50.700                                  
  83282236.16749        42.500    20338371.08649                                
                
  22307441.85208 117226466.68108        45.700                    22307451.79307
  91345259.04149        35.400    22307451.59849  22307450.52309  87539201.96209
        48.600  
  24966024.46103 131197452.52203        33.500                    24966034.80106
 102231672.16345        19.300    24966034.81645  24966034.06306  97972004.94206
        40.500  
  21315523.17207 113863608.00107        44.300    21315522.55907  21315526.43806
  88560615.92906        40.000    21315527.62506                                
                
  20258666.19508 106460136.55908        46.600                                  
  82955890.37049        41.600    20258671.80549                                
                
  21244805.94506 113645430.38006        38.600    21244803.87905  21244808.05907
  88390852.61807        41.000    21244807.91407                                
                
  23997013.34406 126105133.80906        39.900                    23997022.26204
  98263764.99346        20.600    23997021.52046  23997021.85206  94169439.28406
        39.000  
  19509381.05509 104179027.48409        52.300    19509379.88309  19509382.50409
  81028146.22309        50.100    19509383.23009                                
                
  24431259.62501 128387115.49901        27.600                                  
                                                                                
                
  25167581.96903 132256572.70103        32.000                                  
 103057058.81343        13.900    25167592.49243                                
                
  22727081.01608 121617207.98008        46.500    22727080.37107  22727085.83206
  94591173.25206        40.100    22727086.09006                                
                
  20317000.42209 106766635.41809        49.200                    20317010.17209
  83194776.59149        43.600    20317010.44949  20317008.60209  79728315.35909
        54.100  
  21617895.20308 113602839.27708        47.300                    21617904.75008
  88521720.29149        39.000    21617904.45349  21617903.95309  84833317.80209
        50.500  
  22035145.32008 117459735.37008        47.100    22035144.22308  22035151.30505
  91357593.52305        35.800    22035152.21905                                
                
  24036111.35205 126310697.73505        35.400                                  
  98423879.47645        19.900    24036118.41045                                
                
  24264121.59405 127508827.58205        36.300                                  
  99357565.34445        19.600    24264128.71545                                
                
 19  6  7  4  0 25.0000000  0 18G 7R20G18G 8G27R16G11R19G 9R 9G17G16  .000000000
                                R21G 1G30R10G22G28
  20247105.12509 106399488.12109        50.900                    20247111.23409
  82908555.36249        44.500    20247111.27749                                
                
  19560344.42208 104597980.30308        47.300    19560344.25408  19560350.03909
  81354005.13509        49.100    19560349.34809                                
                
  20338814.71909 106881223.66209        50.100                                  
  83284082.77349        42.100    20338822.23049                                
                
  22309502.61708 117237295.32708        45.800                    22309512.71907
  91353696.94049        35.300    22309512.19149  22309511.38709  87547288.26709
        49.100  
  24968594.47704 131210960.48604        34.100                    24968605.62106
 102242197.83445        19.900    24968605.42245  24968604.59407  97982092.04507
        41.800  
  21317871.84407 113876156.05307        44.000    21317871.58607  21317875.53107
  88570375.50706        39.600    21317876.68406                                
                
  20258743.08608 106460542.28908        46.600                                  
  82956206.52249        41.500    20258748.96149                                
                
  21247999.86706 113662524.19006        38.100    21247999.30105  21248003.44507
  88404147.78806        40.800    21248003.36306                                
                
  23999043.03106 126115800.88906        39.600                    23999052.67604
  98272076.99146        20.900    23999051.92646  23999052.79706  94177404.97006
        39.300  
  19507963.79709 104171463.76909        52.700    19507963.44509  19507966.42609
  81022263.33509        49.700    19507966.81309                                
                
  24429475.41401 128377734.68011        30.500                                  
                                                                                
                
  25169397.31302 132266105.54402        31.500                                  
 103064487.03045        15.600    25169406.31645                                
                
  22724070.22708 121601094.66108        46.400    22724069.38707  22724074.89506
  94578640.65606        39.600    22724075.01206                                
                
  20315752.07809 106760075.35009        49.300                    20315761.89809
  83189664.84849        43.500    20315762.06349  20315760.30109  79723416.62009
        54.100  
  21615828.32808 113591975.82508        47.400                    21615837.47308
  88513255.25849        39.000    21615837.22749  21615836.62909  84825205.46909
        50.500  
  22031695.49208 117441345.86108        46.300    22031694.84408  22031702.03505
  91343290.55905        35.300    22031702.45705                                
                
  24034337.04705 126301374.31805        35.300                                  
  98416614.46945        19.600    24034344.24245                                
                
  24262364.32805 127499590.43505        37.100                                  
  99350367.54445        19.000    24262371.18445                                
                
 19  6  7  4  0 30.0000000  0 18G 7R20G18G 8G27R16G11R19G 9R 9G17G16  .000000000
                                R21G 1G30R10G22G28
  20246747.60909 106397611.10509        50.500                    20246754.03909
  82907092.74249        44.100    20246754.03949                                
                
  19560233.48408 104597386.39108        47.300    19560233.02708  19560239.27009
  81353543.20709        48.900    19560238.20709                                
                
  20339269.00009 106883610.88609        50.400                                  
  83285942.93949        42.400    20339276.45349                                
                
  22311563.32008 117248124.32808        45.800                    22311573.16007
  91362135.12149        35.200    22311572.68049  22311571.74609  87555374.84709
        48.600  
  24971164.09403 131224464.63803        33.000                    24971175.15206
 102252720.55645        19.600    24971175.05945  24971174.07806  97992176.33906
        40.600  
  21320223.63307 113888717.96007        44.000    21320222.91807  21320226.36706
  88580145.85806        40.000    21320228.33206                                
                
  20258823.46908 106460961.92908        47.000                                  
  82956533.50749        41.800    20258828.85949                                
                
  21251196.77306 113679624.03106        38.300    21251196.05905  21251200.34807
  88417447.65906        40.900    21251199.80506                                
                
  24001073.57006 126126466.72706        40.100                    24001083.48405
  98280388.04046        21.800    24001081.82046  24001082.32406  94185369.72406
        39.300  
  19506549.87509 104163914.56709        52.900    19506549.84409  19506552.71509
  81016391.73909        49.700    19506553.15209                                
                
  24427691.32001                        30.500                                  
                                                                                
                
  25171210.97704 132275641.54404        34.000                                  
 103071917.65745        15.600    25171220.81345                                
                
  22721060.54708 121584992.09408        45.400    22721059.39507  22721065.77306
  94566116.43706        39.100    22721065.50006                                
                
  20314506.93809 106753531.81109        49.100                    20314516.59809
  83184565.99449        43.900    20314516.82849  20314515.13709  79718530.20709
        54.200  
  21613763.46109 113581124.35809        48.100                    21613772.27708
  88504799.56849        39.000    21613772.17649  21613771.74609  84817102.09109
        50.600  
  22028245.95308 117422958.50508        46.000    22028244.94108  22028253.07805
  91328989.29005        35.700    22028253.10205                                
                
  24032562.96105 126292051.27005        35.700                                  
  98409349.74945        19.900    24032570.02745                                
                
  24260605.58605 127490349.87705        36.900                                  
  99343167.13745        19.900    24260612.58645                                
                
 19  6  7  4  0 35.0000000  0 18G 7R20G18G 8G27R16G11R19G 9R 9G17G16  .000000000
                                R21G 1G30R10G22G28
  20246393.45309 106395750.75209        50.500                    20246399.85909
  82905643.11549        43.600    20246400.09449                                
                
  19560126.59408 104596810.99908        47.300    19560125.39807  19560131.88309
  81353095.67609        48.900    19560130.66809                                
                
  20339726.43009 106886015.38609        49.800                                  
  83287816.57649        41.300    20339733.93449                                
                
  22313623.96908 117258953.63908        45.600                    22313633.87107
  91370573.54049        34.900    22313633.48849  22313632.65209  87563461.66909
        48.600  
  24973732.75003 131237965.14403        32.200                    24973744.41006
 102263240.42045        19.300    24973744.17245  24973743.84407  98002257.80707
        42.700  
  21322577.78907 113901293.57407        43.200    21322577.62107  21322580.62507
  88589926.87306        39.800    21322582.41406                                
                
  20258905.91408 106461395.54808        46.700                                  
  82956871.39349        41.300    20258911.40249                                
                
  21254396.17206 113696729.77906        38.100    21254393.98805  21254398.01207
  88430752.12206        40.700    21254397.66006                                
                
  24003101.86706 126137131.25706        38.700                    24003111.93405
  98288698.06046        21.100    24003111.54746  24003111.27306  94193333.52106
        39.500  
  19505139.50809 104156380.04209        52.300    19505138.90208  19505142.05909
  81010531.54709        50.000    19505142.15609                                
                
  24425908.35901                        29.600                                  
                                                                                
                
  25173026.85903 132285180.64403        33.300                                  
 103079350.64745        16.900    25173035.89145                                
                
  22718053.00808 121568900.36108        46.600    22718053.20308  22718058.00807
  94553600.62406        40.000    22718058.26606                                
                
  20313264.59409 106747004.78809        49.000                    20313274.42609
  83179480.00149        43.400    20313274.99249  20313273.11709  79713656.14109
        54.100  
  21611700.80508 113570284.89308        47.600                    21611709.75408
  88496353.22049        38.800    21611709.65649  21611709.04309  84809007.68909
        50.500  
  22024797.05508 117404573.23308        45.300    22024795.80108  22024803.67205
  91314689.63405        35.400    22024803.91805                                
                
  24030789.60905 126282728.52505        35.700                                  
  98402085.27745        19.600    24030795.85945                                
                
  24258846.37505 127481105.85005        36.200                                  
  99335963.99745        19.300    24258853.89145                                
                
 19  6  7  4  0 40.0000000  0 18G 7R20G18G 8G27R16G11R19G 9R 9G17G16  .000000000
                                R21G 1G30R10G22G28
  20246042.68009 106393907.13609        51.300                    20246048.95309
  82904206.53649        44.300    20246049.09049                                
                
  19560021.80508 104596254.25308        47.400    19560021.49608  19560027.09809
  81352662.65109        48.800    19560026.47309                                
                
  20340187.32009 106888437.29809        50.400                                  
  83289703.77949        42.000    20340194.95349                                
                
  22315684.75808 117269783.25808        45.900                    22315694.68007
  91379012.20149        35.400    22315694.40249  22315693.30109  87571548.72109
        48.900  
  24976299.84402 131251461.78002        31.900                    24976313.23806
 102273757.25756        20.100    24976312.64546  24976311.53106  98012336.50106
        40.600  
  21324934.55507 113913882.97807        44.100    21324933.85507  21324937.16406
  88599718.61906        39.200    21324939.03906                                
                
  20258991.02308 106461843.13208        46.500                                  
  82957220.15849        41.800    20258996.51249                                
                
  21257594.69506 113713841.36306        38.400    21257592.85505  21257598.16406
  88444061.12606        40.400    21257596.39806                                
                
  24005131.46106 126147794.59806        39.000                    24005141.48805
  98297007.19946        21.500    24005141.12146  24005140.94906  94201296.38806
        39.900  
  19503731.41409 104148860.19209        52.700    19503730.66009  19503733.33209
  81004682.77309        50.000    19503734.07809                                
                
  24424128.25801 128349631.23701        30.500                                  
                                                                                
                
  25174841.17203 132294722.91503        33.500                                  
 103086786.11845        16.900    25174852.10245                                
                
  22715048.39808 121552819.49008        45.700    22715047.77307  22715053.27306
  94541093.28206        40.100    22715053.15206                                
                
  20312025.73409 106740494.38309        49.500                    20312035.94109
  83174406.95849        44.000    20312035.89149  20312034.19509  79708794.46709
        54.200  
  21609640.18009 113559457.49209        48.400                    21609649.47708
  88487916.26949        39.200    21609649.16849  21609648.70309  84800922.26309
        50.700  
  22021349.32008 117386190.34008        46.500    22021347.36707  22021354.93005
  91300391.82005        35.400    22021355.24605                                
                
  24029015.50805 126273406.20805        36.800                                  
  98394821.14245        19.900    24029022.32845                                
                
  24257085.85905 127471858.44205        36.800                                  
  99328758.19345        19.000    24257094.23045                                
                
 19  6  7  4  0 45.0000000  0 18G 7R20G18G 8G27R16G11R19G 9R 9G17G16  .000000000
                                R21G 1G30R10G22G28
  20245695.25809 106392080.21509        50.800                    20245701.34409
  82902782.94949        43.700    20245701.67249                                
                
  19559920.69508 104595715.93508        47.500    19559920.75808  19559927.17609
  81352243.95609        49.300    19559925.89809                                
                
  20340651.63309 106890876.66709        50.000                                  
  83291604.58049        41.700    20340658.97749                                
                
  22317745.71108 117280613.32808        45.500                    22317755.43807
  91387451.20449        35.000    22317755.28149  22317754.14509  87579636.11109
        48.500  
  24978869.71104 131264954.71704        34.900                    24978880.85506
 102284271.20046        20.400    24978880.22746  24978879.10907  98022412.35907
        41.200  
  21327293.97707 113926486.24107        43.900    21327293.55107  21327297.17606
  88609521.13906        39.600    21327298.40206                                
                
  20259078.84408 106462304.68708        46.600                                  
  82957579.80649        41.800    20259084.38349                                
                
  21260794.06306 113730958.96506        38.100    21260792.48805  21260797.64107
  88457374.79906        40.500    21260796.39506                                
                
  24007160.29706 126158456.60806        39.700                    24007170.41005
  98305315.25146        22.000    24007170.07046  24007170.77706  94209258.29006
        40.200  
  19502325.65609 104141355.00709        52.900    19502324.97709  19502328.30109
  80998845.40409        50.300    19502328.60509                                
                
  24422345.71101                        29.900                                  
                                                                                
                
  25176658.58603 132304268.43503        32.900                                  
 103094224.25945        16.300    25176668.05945                                
                
  22712046.22708 121536749.40808        46.200    22712044.90207  22712049.63706
  94528594.32206        40.100    22712049.98806                                
                
  20310790.37509 106734000.49409        49.100                    20310800.13309
  83169346.78849        43.700    20310800.24249  20310798.48009  79703945.14009
        54.200  
  21607582.31309 113548642.11409        48.400                    21607591.28108
  88479488.68949        39.400    21607591.16049  21607590.58209  84792845.84109
        50.600  
  22017899.69508 117367809.59008        46.400    22017899.32807  22017907.76205
  91286095.68705        36.200    22017906.96105                                
                
  24027241.60905 126264084.25505        36.500                                  
  98387557.25846        20.400    24027248.27746                                
                
  24255325.25005 127462607.63205        36.400                                  
  99321549.78945        18.600    24255333.23445                                
                
 19  6  7  4  0 50.0000000  0 18G 7R20G18G 8G27R16G11R19G 9R 9G17G16  .000000000
                                R21G 1G30R10G22G28
  20245350.89809 106390269.99409        50.800                    20245357.18809
  82901372.39049        43.800    20245357.14549                                
                
  19559823.82008 104595196.24508        47.300    19559823.23008  19559829.60909
  81351839.75209        49.300    19559828.66409                                
                
  20341119.52309 106893333.33209        49.900                                  
  83293518.87149        42.200    20341126.51249                                
                
  22319806.53908 117291443.65608        45.500                    22319816.33207
  91395890.41349        35.500    22319816.35949  22319815.22709  87587723.68209
        48.600  
  24981435.63303 131278443.87403        33.400                    24981446.86306
 102294782.21246        20.600    24981447.29746  24981445.83606  98032485.44206
        39.500  
  21329656.45307 113939103.24407        44.100    21329655.71507  21329659.20306
  88619334.35506        39.600    21329660.19506                                
                
  20259169.17208 106462780.18308        46.500                                  
  82957950.32349        41.700    20259174.81349                                
                
  21263996.01606 113748082.36606        38.900    21263993.91005  21263997.92607
  88470692.98706        40.700    21263997.47706                                
                
  24009187.81306 126169117.30806        38.300                    24009200.42205
  98313622.30046        22.500    24009199.12546  24009199.60906  94217219.21706
        40.300  
  19500923.16409 104133864.44709        52.400    19500922.41409  19500924.93409
  80993019.41009        50.700    19500925.84409                                
                
  24420566.89101                        29.900                                  
                                                                                
                
  25178475.40603 132313817.06203        32.000                                  
 103101664.72445        15.600    25178484.83645                                
                
  22709043.16407 121520690.14907        43.500    22709042.66807  22709048.78906
  94516103.79006        39.600    22709048.75006                                
                
  20309557.69509 106727523.20009        49.300                    20309567.46109
  83164299.55049        43.900    20309567.60249  20309565.92209  79699108.19809
        54.200  
  21605526.12509 113537838.83009        48.600                    21605535.44508
  88471070.56149        39.200    21605535.25049  21605534.76209  84784778.46909
        50.600  
  22014452.39808 117349430.94608        46.400    22014451.66807  22014458.75405
  91271801.18605        36.400    22014459.04305                                
                
  24025467.77305 126254762.66405        36.600                                  
  98380293.67946        21.300    24025474.39146                                
                
  24253564.68005 127453353.37505        35.400                                  
  99314338.70745        19.000    24253572.35545                                
                
 19  6  7  4  0 55.0000000  0 18G 7R20G18G 8G27R16G11R19G 9R 9G17G16  .000000000
                                R21G 1G30R10G22G28
  20245009.43009 106388476.49309        50.900                    20245015.73809
  82899974.85349        43.600    20245015.73049                                
                
  19559730.03108 104594695.14208        47.300    19559729.85508  19559735.51609
  81351450.00209        48.900    19559735.03109                                
                
  20341589.99209 106895807.45309        50.500                                  
  83295446.74949        42.400    20341597.23849                                
                
  22321867.67208 117302274.29708        45.600                    22321877.48407
  91404329.87049        35.200    22321877.03549  22321876.22709  87595811.48009
        48.700  
  24984001.88303 131291929.24503        32.000                    24984013.70706
 102305290.30745        18.600    24984013.42645  24984011.80506  98042555.67006
        40.300  
  21332021.00807 113951734.06507        44.400    21332020.32007  21332023.55106
  88629158.30906        39.400    21332024.85206                                
                
  20259262.36708 106463269.64108        46.700                                  
  82958331.71449        41.800    20259268.05149                                
                
  21267197.65606 113765211.57406        38.000    21267195.74205  21267199.95307
  88484015.70507        41.000    21267199.78107                                
                
  24011216.39805 126179776.73905        37.700                    24011228.21505
  98321928.29446        21.800    24011228.20346  24011228.10507  94225179.18807
        41.300  
  19499523.06309 104126388.60209        52.600    19499522.29309  19499525.11709
  80987204.85609        50.400    19499525.82809                                
                
  24418790.48401 128321585.93701        29.100                                  
                                                                                
                
  25180292.60902 132323368.91402        31.800                                  
 103109107.67645        16.900    25180302.50045                                
                
  22706045.22708 121504641.73908        45.400    22706044.75407  22706050.74206
  94503621.68806        39.900    22706049.91006                                
                
  20308328.23409 106721062.48309        49.100                    20308338.05109
  83159265.22749        43.800    20308338.22749  20308336.46109  79694283.63909
        54.300  
  21603472.80509 113527047.59709        48.800                    21603482.09008
  88462661.80449        39.500    21603481.77049  21603481.39509  84776720.07509
        50.500  
  22011004.90608 117331054.59608        46.500    22011004.26208  22011011.00805
  91257508.47505        35.600    22011011.56605                                
                
  24023693.29705 126245441.49605        36.200                                  
  98373030.46745        19.900    24023700.48045                                
                
  24251802.89805 127444095.69005        36.100                                  
  99307124.91045        19.000    24251810.80145                                
                
 19  6  7  4  1  0.0000000  0 17G 7R20G18G 8G27R16G11R19G 9R 9G16R21  .000000000
                                G 1G30R10G22G28
  20244671.47709 106386699.74909        50.300                    20244677.35209
  82898590.37649        43.800    20244677.78949                                
                
  19559640.02308 104594212.45308        46.800    19559639.41808  19559645.41809
  81351074.57509        49.000    19559644.72309                                
                
  20342064.01609 106898298.93009        50.000                                  
  83297388.15849        41.600    20342071.55149                                
                
  22323929.41408 117313105.26708        45.800                    22323938.30907
  91412769.58649        35.100    22323938.08649  22323937.23409  87603899.53809
        48.500  
  24986569.14804 131305410.84104        34.500                    24986578.68006
 102315795.42945        19.600    24986578.93045  24986577.91406  98052623.10206
        40.800  
  21334387.82007 113964378.72107        44.700    21334387.39507  21334391.18806
  88638993.02706        39.600    21334391.90606                                
                
  20259358.36708 106463773.04208        46.500                                  
  82958723.97649        41.800    20259363.76649                                
                
  21270400.40606 113782346.70506        38.100    21270398.65605  21270403.70307
  88497343.01907        41.100    21270403.14507                                
                
  24013244.33605 126190434.87605        36.800                    24013256.52005
  98330233.35546        20.100    24013256.22346  24013256.60507  94233138.15907
        41.500  
  19498125.85209 104118927.46609        53.200    19498125.25009  19498128.18809
  80981401.74909        50.200    19498128.59409                                
                
  25182111.77303 132332923.91403        32.500                                  
 103116553.16544        14.800    25182120.44144                                
                
  22703048.21907 121488604.22107        44.400    22703046.91807  22703053.66006
  94491148.05206        39.100    22703052.96106                                
                
  20307101.75809 106714618.34009        49.100                    20307111.68009
  83154243.81849        44.200    20307111.96549  20307110.13309  79689471.45809
        54.400  
  21601421.47709 113516268.43509        48.200                    21601430.84408
  88454262.45749        39.500    21601430.56649  21601430.04709  84768670.69809
        50.500  
  22007558.18008 117312680.52308        46.900    22007557.28108  22007564.19505
  91243217.54505        35.300    22007564.49205                                
                
  24021920.27305 126236120.72805        36.400                                  
  98365767.48245        19.300    24021926.74645                                
                
  24250041.18005 127434834.66605        35.700                                  
  99299908.53945        19.600    24250048.45745                                
                
 19  6  7  4  1  5.0000000  0 17G 7R20G18G 8G27R16G11R19G 9R 9G16R21  .000000000
                                G 1G30R10G22G28
  20244336.50009 106384939.75709        50.400                    20244342.80509
  82897218.95349        44.200    20244342.91849                                
                
  19559552.96908 104593748.37608        47.000    19559552.79708  19559558.57409
  81350713.62209        49.100    19559557.87109                                
                
  20342541.55509 106900807.78309        50.000                                  
  83299343.10549        42.600    20342548.82849                                
                
  22325990.24208 117323936.57608        45.500                    22325999.81607
  91421209.55849        35.400    22325999.46149  22325998.48409  87611987.84509
        48.800  
  24989132.71904 131318888.74604        34.700                    24989143.65206
 102326297.68146        20.900    24989144.14846  24989142.59006  98062687.75106
        39.400  
  21336757.72707 113977037.11207        43.900    21336757.05507  21336759.85907
  88648838.41806        40.000    21336761.96506                                
                
  20259456.68808 106464290.37908        46.600                                  
  82959127.09549        41.900    20259462.25449                                
                
  21273604.45306 113799487.60706        38.100    21273602.92205  21273607.84807
  88510674.82706        40.900    21273607.51206                                
                
  24015272.01605 126201091.73305        35.300                    24015283.77005
  98338537.37646        20.400    24015283.72346  24015284.91407  94241096.17907
        41.800  
  19496731.89109 104111481.12209        53.200    19496730.92209  19496733.66809
  80975610.14209        49.500    19496734.04709                                
                
  25183930.33603                        32.600                                  
                        16.900    25183939.53545                                
                
  22700051.89107 121472577.58007        44.500    22700051.60207  22700058.56606
  94478682.89106        39.400    22700057.94106                                
                
  20305878.72709 106708190.83609        49.400                    20305888.66409
  83149235.37349        43.600    20305888.93849  20305887.00409  79684671.69909
        54.100  
  21599372.63309 113505501.42609        48.100                    21599381.68408
  88445872.60249        39.200    21599381.67649  21599381.17209  84760630.42109
        50.600  
  22004111.90608 117294308.80808        46.500    22004110.83608  22004117.26205
  91228928.44105        35.900    22004118.15605                                
                
  24020146.13305 126226800.46805        36.700                                  
  98358504.96146        21.800    24020153.37946                                
                
  24248277.30505 127425570.22505        35.400                                  
  99292689.48645        19.000    24248285.23845                                
                
 19  6  7  4  1 10.0000000  0 17G 7R20G18G 8G27R16G11R19G 9R 9G16R21  .000000000
                                G 1G30R10G22G28
  20244004.67209 106383196.39909        50.500                    20244010.98809
  82895860.49049        43.800    20244011.08249                                
                
  19559469.84408 104593302.70708        47.300    19559469.36708  19559474.98409
  81350366.98809        48.600    19559474.62509                                
                
  20343022.18809 106903333.90309        49.400                                  
  83301311.51049        42.400    20343029.59049                                
                
  22328051.03908 117334768.11308        45.400                    22328060.63707
  91429649.71849        35.400    22328060.70749  22328059.53909  87620076.32009
        48.500  
  24991697.51605 131332362.76105        36.100                    24991707.71906
 102336796.90445        19.600    24991708.29345  24991705.52006  98072749.52206
        39.300  
  21339129.67207 113989709.14007        44.300    21339129.32007  21339132.49607
  88658694.43106        39.900    21339134.04306                                
                
  20259557.64108 106464821.57608        46.900                                  
  82959541.01149        41.700    20259563.46549                                
                
  21276810.17206 113816634.30806        38.300    21276808.49205  21276812.03107
  88524011.14406        40.600    21276812.91806                                
                
  24017299.85905 126211747.13605        36.300                    24017312.44106
  98346840.29446        20.400    24017312.09046  24017312.67607  94249053.14107
        42.800  
  19495339.53109 104104049.44609        52.700    19495339.10909  19495342.28109
  80969829.94909        50.000    19495342.34009                                
                
  25185749.01603 132352043.44703        33.100                                  
 103131451.37645        16.300    25185759.27345                                
                
  22697061.09407 121456561.79907        44.300    22697058.37907  22697065.50806
  94466226.15506        40.200    22697065.38306                                
                
  20304658.57809 106701779.85409        49.200                    20304668.68409
  83144239.80549        43.800    20304668.86349  20304667.03109  79679884.28009
        54.200  
  21597326.24209 113494746.42609        48.300                    21597335.35208
  88437492.08649        39.200    21597334.97749  21597334.64109  84752599.09909
        50.800  
  22000665.61708 117275939.33308        46.400    22000664.84808  22000671.89105
  91214641.06505        35.800    22000671.91005                                
                
  24018373.36705 126217480.55805        37.100                                  
  98351242.70746        20.400    24018380.50846                                
                
  24246513.82805 127416302.32505        35.700                                  
  99285467.75345        19.300    24246521.37945                                
                
 19  6  7  4  1 15.0000000  0 17G 7R20G18G 8G27R16G11R19G 9R 9G16R21  .000000000
                                G 1G30R10G22G28
  20243676.03909 106381469.79609        51.300                    20243682.50409
  82894515.07549        44.100    20243682.53949                                
                
  19559390.04708 104592875.63608        47.900    19559389.53908  19559395.48809
  81350034.81909        48.400    19559394.66809                                
                
  20343506.15609 106905877.41209        50.000                                  
  83303293.46349        41.600    20343513.57849                                
                
  22330112.08608 117345599.93908        45.500                    22330122.34007
  91438090.09849        34.900    22330121.80149  22330120.95309  87628165.02509
        48.600  
  24994260.32805 131345833.09005        35.800                    24994271.94106
 102347293.26246        20.600    24994271.53546  24994269.10506  98082808.53306
        38.700  
  21341504.14807 114002395.08507        44.200    21341503.78907  21341507.27007
  88668561.25306        39.700    21341508.92206                                
                
  20259661.79708 106465366.77408        46.800                                  
  82959965.83849        41.900    20259667.15249                                
                
  21280016.33605 113833786.72905        37.900    21280014.80105  21280019.30107
  88537351.91207        41.200    21280019.33207                                
                
  24019327.14805 126222401.22405        35.700                    24019338.98806
  98355142.15246        20.400    24019339.82846  24019340.59407  94257009.11407
        43.900  
  19493950.78909 104096632.47209        52.500    19493950.16009  19493953.00809
  80964061.19609        49.700    19493953.43409                                
                
  25187570.67204 132361608.00904        34.000                                  
 103138904.27745        15.600    25187579.64845                                
                
  22694069.40607 121440556.91907        44.100    22694067.72307  22694074.48006
  94453777.93506        40.000    22694074.67206                                
                
  20303441.79709 106695385.53009        49.300                    20303451.91409
  83139257.21749        43.900    20303452.08649  20303450.27009  79675109.30409
        54.300  
  21595281.64809 113484003.59709        48.500                    21595290.86708
  88429121.04149        39.000    21595290.60949  21595290.25009  84744576.84709
        50.700  
  21997221.03108 117257572.24008        47.000    21997219.27708  21997227.00805
  91200355.55305        35.800    21997226.25805                                
                
  24016599.49205 126208161.19205        36.400                                  
  98343980.84846        20.900    24016606.91846                                
                
  24244750.14105 127407030.99005        36.300                                  
  99278243.33545        18.600    24244756.77745                                
                
 19  6  7  4  1 20.0000000  0 17G 7R20G18G 8G27R16G11R19G 9R 9G16R21  .000000000
                                G 1G30R10G22G28
  20243350.63309 106379759.86209        50.900                    20243357.12109
  82893182.65449        43.900    20243357.05949                                
                
  19559313.54708 104592466.92108        47.300    19559313.33208  19559318.85909
  81349716.93409        49.000    19559318.27009                                
                
  20343993.40609 106908438.25209        49.200                                  
  83305288.92449        41.900    20344000.89849                                
                
  22332173.89808 117356432.02908        45.700                    22332183.48807
  91446530.68649        35.700    22332183.11749  22332182.16409  87636253.90909
        48.800  
  24996823.39805 131359299.57905        36.900                    24996834.21906
 102357786.61745        19.600    24996834.16045  24996832.22306  98092864.63206
        38.700  
  21343881.60207 114015094.68407        44.100    21343881.36707  21343884.52307
  88678438.70106        39.600    21343886.25006                                
                
  20259768.11708 106465925.82108        46.700                                  
  82960401.45349        41.600    20259773.48849                                
                
  21283224.07006 113850945.00606        38.300    21283222.63305  21283227.36707
  88550697.23406        40.200    21283226.90206                                
                
  24021353.18805 126233053.94905        35.900                    24021367.28106
  98363442.94246        22.000    24021366.90246  24021367.95307  94264964.03707
        43.900  
  19492564.10909 104089230.27409        52.400    19492563.84409  19492566.99609
  80958303.92809        50.100    19492567.22709                                
                
  25189391.33603 132371175.75203        32.300                                  
 103146359.66945        17.800    25189400.09845                                
                
  22691080.99207 121424562.97807        44.900    22691079.16407  22691085.89507
  94441338.18706        40.600    22691085.99606                                
                
  20302228.47709 106689007.77009        49.300                    20302238.27009
  83134287.53549        43.900    20302238.54349  20302236.53909  79670346.69509
        54.200  
  21593240.05508 113473272.84808        47.900                    21593249.02308
  88420759.42449        38.900    21593248.68449  21593248.40609  84736563.62609
        50.600  
  21993774.75808 117239207.42908        46.000    21993773.88308  21993781.36705
  91186071.80605        35.400    21993780.97705                                
                
  24014825.71905 126198842.22205        37.200                                  
  98336719.31646        21.700    24014833.49646                                
                
  24242984.66405 127397756.23405        35.700                                  
  99271016.25945        18.600    24242992.37545                                
                
 19  6  7  4  1 25.0000000  0 17G 7R20G18G 8G27R16G11R19G 9R 9G16R21  .000000000
                                G 1G30R10G22G28
  20243028.31309 106378066.63309        50.600                    20243035.06609
  82891863.25149        43.900    20243034.77749                                
                
  19559240.39108 104592076.76408        47.600    19559240.32408  19559246.13309
  81349413.48209        48.900    19559245.37109                                
                
  20344484.18809 106911016.46809        49.100                                  
  83307297.91849        42.000    20344491.46149                                
                
  22334235.13308 117367264.40708        45.400                    22334244.99207
  91454971.49049        35.200    22334244.43049  22334243.49209  87644343.02209
        48.600  
  24999385.51605 131372762.28205        36.000                    24999396.05506
 102368277.04845        19.000    24999395.81645  24999394.37906  98102917.99206
        40.000  
  21346261.36707 114027807.95407        44.300    21346261.52307  21346264.50007
  88688326.78806        39.900    21346266.21106                                
                
  20259876.89808 106466498.83408        46.700                                  
  82960847.95649        41.700    20259882.57449                                
                
  21286431.96906 113868108.89906        38.600    21286431.18005  21286434.67207
  88564046.91406        40.700    21286435.50806                                
                
  24023381.75805 126243705.26505        37.100                    24023393.89806
  98371742.67146        20.600    24023394.00446  24023394.55107  94272917.92407
        43.800  
  19491181.35909 104081842.85909        52.700    19491180.32809  19491183.33209
  80952558.15909        49.900    19491183.95709                                
                
  25191210.88302 132380746.63402        31.600                                  
 103153817.47045        15.600    25191221.40245                                
                
  22688091.68807 121408579.86107        43.900    22688091.67607  22688098.80507
  94428906.89706        40.900    22688099.35206                                
                
  20301017.82009 106682646.64809        49.300                    20301027.71509
  83129330.82649        43.900    20301027.98049  20301026.05509  79665596.50709
        54.300  
  21591199.85208 113462554.22908        47.800                    21591209.39808
  88412407.25349        39.200    21591209.14149  21591208.62509  84728559.46509
        50.500  
  21990329.98408 117220844.91408        46.400    21990329.09808  21990337.16805
  91171789.85105        36.000    21990336.52005                                
                
  24013053.27305 126189523.74605        36.900                                  
  98329458.16646        20.600    24013060.43446                                
                
  24241219.35205 127388478.04205        35.200                                  
  99263786.51745        19.900    24241226.44145                                
                
 19  6  7  4  1 30.0000000  0 17G 7R20G18G 8G27R16G11R19G 9R 9G16R21  .000000000
                                G 1G30R10G22G28
  20242709.34409 106376390.12709        51.200                    20242715.88309
  82890556.87849        43.900    20242715.78149                                
                
  19559171.43008 104591705.07608        47.400    19559170.64508  19559176.36709
  81349124.38909        49.000    19559175.85509                                
                
  20344977.85909 106913611.97409        49.100                                  
  83309320.38849        41.600    20344985.26649                                
                
  22336296.66408 117378097.05908        45.300                    22336306.38307
  91463412.51849        34.700    22336305.79349  22336304.72709  87652432.33609
        48.600  
  25001946.52305 131386221.21005        35.800                    25001957.52306
 102378764.49746        20.100    25001956.91446  25001955.77706  98112968.45106
        39.200  
  21348644.17207 114040534.98707        43.800    21348643.75807  21348647.64106
  88698225.56906        39.500    21348648.80506                                
                
  20259988.61708 106467085.73108        46.800                                  
  82961305.27649        41.800    20259994.15649                                
                
  21289641.40605 113885278.58705        37.500    21289640.98805  21289645.56307
  88577401.10506        40.800    21289645.06606                                
                
  24025407.89805 126254355.18705        37.700                    24025421.08606
  98380041.26046        22.300    24025420.69146  24025420.88707  94280870.76807
        43.800  
  19489800.65609 104074470.23309        52.800    19489799.80509  19489803.19109
  80946823.89209        50.500    19489803.25409                                
                
  25193033.79703 132390320.75003        32.900                                  
 103161277.77945        16.900    25193043.36345                                
                
  22685108.50808 121392607.67108        45.800    22685108.02707  22685115.37907
  94416484.07806        40.800    22685114.77706                                
                
  20299810.60909 106676302.10909        49.700                    20299820.37109
  83124387.02949        44.100    20299820.54749  20299818.81309  79660858.70309
        54.100  
  21589162.84409 113451847.72109        48.000                    21589171.83608
  88404064.51549        39.400    21589171.56349  21589171.24609  84720564.34009
        50.900  
  21986885.98408 117202484.68608        46.200    21986884.68408  21986891.56305
  91157509.68805        36.300    21986892.03505                                
                
  24011280.56305 126180205.78105        37.300                                  
  98322197.43746        20.400    24011287.26246                                
                
  24239453.03905 127379196.46305        36.400                                  
  99256554.08345        17.400    24239460.50045                                
                
 19  6  7  4  1 35.0000000  0 17G 7R20G18G 8G27R16G11R19G 9R 9G16R21  .000000000
                                G 1G30R10G22G28
  20242393.64109 106374730.30509        50.900                    20242400.07409
  82889263.50949        43.900    20242400.11349                                
                
  19559104.47708 104591351.82308        47.200    19559104.59008  19559110.84809
  81348849.63209        49.000    19559109.75409                                
                
  20345475.17209 106916224.75309        49.200                                  
  83311356.31549        42.200    20345482.47749                                
                
  22338358.18808 117388929.97308        45.400                    22338367.57407
  91471853.73849        34.500    22338367.33649  22338366.20309  87660521.83909
        48.500  
  25004507.30505 131399676.30805        35.000                    25004517.62506
 102389248.96545        18.300    25004517.21545  25004515.03906  98123016.08806
        38.400  
  21351030.13307 114053275.70307        43.700    21351028.69907  21351032.10506
  88708134.99706        39.800    21351033.91806                                
                
  20260102.68808 106467686.51008        46.800                                  
  82961773.40949        41.300    20260108.51249                                
                
  21292853.61706 113902453.84006        38.600    21292851.37105  21292856.16007
  88590759.63107        41.300    21292855.86307                                
                
  24027436.15606 126265003.68006        38.700                    24027446.69906
  98388338.75946        24.400    24027446.77346  24027447.30107  94288822.53407
        43.900  
  19488422.46109 104067112.38209        52.500    19488421.92209  19488425.02709
  80941101.11609        50.300    19488425.36309                                
                
  25194856.12502                        31.800                                  
                        14.800    25194865.94144                                
                
  22682125.10207 121376646.42207        44.500    22682124.79707  22682132.38707
  94404069.77607        41.400    22682132.18407                                
                
  20298606.60209 106669974.19409        49.200                    20298616.27309
  83119456.19049        44.100    20298616.57049  20298614.55909  79656133.30909
        54.100  
  21587127.75809 113441153.34609        48.300                    21587136.71908
  88395731.24049        38.800    21587136.61349  21587136.09409  84712578.27409
        50.800  
  21983441.99208 117184126.84908        46.400    21983441.00008  21983448.11305
  91143231.37105        36.400    21983448.21505                                
                
  24009506.79705 126170888.24605        37.200                                  
  98314936.99546        21.300    24009514.35546                                
                
  24237686.25005 127369911.41305        35.900                                  
  99249318.99645        18.300    24237693.56345                                
                
 19  6  7  4  1 40.0000000  0 17G 7R20G18G 8G27R16G11R19G 9R 9G16R21  .000000000
                                G 1G30R10G22G28
  20242081.21909 106373087.25909        50.400                    20242087.31309
  82887983.20349        44.000    20242087.40649                                
                
  19559042.57808 104591016.96008        47.000    19559042.06608  19559048.03509
  81348589.18209        48.800    19559047.21909                                
                
  20345975.70309 106918854.94809        49.200                                  
  83313405.81349        41.900    20345983.06349                                
                
  22340419.38308 117399763.14608        45.100                    22340429.15607
  91480295.17049        34.600    22340428.76249  22340427.81609  87668611.54309
        48.400  
  25007066.77304 131413127.65104        34.400                    25007077.59406
 102399730.54545        19.000    25007076.89145  25007075.50006  98133060.94006
        39.100  
  21353417.09407 114066030.14307        43.900    21353416.32007  21353421.57006
  88718055.09706        39.700    21353421.59406                                
                
  20260219.88308 106468301.22108        46.700                                  
  82962252.39949        41.800    20260225.42649                                
                
  21296065.73406 113919634.85106        38.400    21296063.64505  21296067.92607
  88604122.62307        41.100    21296067.68407                                
                
  24029461.12506 126275650.75006        39.200                    24029472.93406
  98396635.19546        24.500    24029473.10246  24029473.46507  94296773.28407
        43.700  
  19487047.73409 104059769.34909        52.700    19487047.04309  19487049.37909
  80935389.86509        49.800    19487050.22309                                
                
  25196678.72703 132409478.48203        33.000                                  
 103176205.80945        16.300    25196689.42245                                
                
  22679145.60207 121360696.06407        44.500    22679144.44507  22679152.18807
  94391663.95707        41.500    22679151.60907                                
                
  20297405.43009 106663662.92909        49.100                    20297415.28109
  83114538.32349        44.100    20297415.29349  20297413.64109  79651420.35909
        54.200  
  21585094.92209 113430471.15809        48.100                    21585103.82408
  88387407.45349        39.100    21585103.91049  21585103.38709  84704601.32909
        50.600  
  21979998.13308 117165771.50808        46.700    21979997.46907  21980004.96905
  91128955.00405        36.200    21980005.00005                                
                
  24007733.94505 126161571.21105        37.800                                  
  98307676.93946        20.600    24007741.22346                                
                
  24235919.21905 127360622.93605        35.700                                  
  99242081.26745        18.300    24235925.71945                                
                
 19  6  7  4  1 45.0000000  0 17G 7R20G18G 8G27R16G11R19G 9R 9G16R21  .000000000
                                G 1G30R10G22G28
  20241771.57009 106371460.92809        51.200                    20241777.59809
  82886715.93649        43.700    20241777.66849                                
                
  19558983.75008 104590700.66008        47.000    19558982.91808  19558988.55509
  81348343.17209        49.100    19558988.01209                                
                
  20346479.59409 106921502.40709        50.400                                  
  83315468.76849        41.800    20346486.86749                                
                
  22342480.91408 117410596.57008        46.100                    22342490.74607
  91488736.79649        35.400    22342490.21949  22342488.90609  87676701.42609
        48.600  
  25009624.32805 131426575.13405        35.000                    25009635.64506
 102410209.08545        19.000    25009635.59845  25009634.76206  98143102.84906
        39.200  
  21355807.65607 114078798.27807        43.800    21355806.95307  21355810.23007
  88727985.85306        39.600    21355811.78106                                
                
  20260339.58608 106468929.77508        46.500                                  
  82962742.18649        42.300    20260345.10949                                
                
  21299278.00806 113936821.47506        38.300    21299276.39105  21299281.56607
  88617489.99807        41.100    21299280.50807                                
                
  24031487.36706 126286296.36906        38.900                    24031498.80106
  98404930.46346        23.000    24031498.82046  24031498.94107  94304722.91507
        44.200  
  19485674.67209 104052441.12609        52.500    19485674.47709  19485677.34009
  80929690.12909        50.500    19485677.93009                                
                
  25198503.53103 132419062.01103        33.500                                  
 103183673.43944        14.800    25198512.71144                                
                
  22676166.32007 121344756.62307        44.900    22676165.66007  22676173.45307
  94379266.61707        41.900    22676172.86707                                
                
  20296207.55509 106657368.28009        49.300                    20296217.13309
  83109633.40249        43.900    20296217.69149  20296215.82009  79646719.81709
        54.100  
  21583064.59408 113419801.11508        47.800                    21583073.73408
  88379093.13849        39.500    21583073.62149  21583072.97309  84696633.43809
        50.700  
  21976555.26608 117147418.53508        46.800    21976554.26208  21976562.67605
  91114680.48505        36.000    21976562.15205                                
                
  24005960.69505 126152254.63605        37.800                                  
  98300417.27446        21.100    24005968.39146                                
                
  24234150.60205 127351331.01605        36.500                                  
  99234840.76645        18.300    24234157.54345                                
                
 19  6  7  4  1 50.0000000  0 17G 7R20G18G 8G27R16G11R19G 9R 9G16R21  .000000000
                                G 1G30R10G22G28
  20241465.23409 106369851.40309        51.200                    20241471.62109
  82885461.75749        43.900    20241471.68849                                
                
  19558927.13308 104590402.87008        47.200    19558927.20708  19558933.35209
  81348111.55709        48.400    19558932.40609                                
                
  20346986.57009 106924167.31609        50.500                                  
  83317545.32549        41.700    20346994.21149                                
                
  22344542.79708 117421430.21208        45.500                    22344552.66807
  91497178.59249        35.200    22344551.88349  22344550.73409  87684791.48109
        48.300  
  25012183.35203 131440018.94703        33.800                    25012193.79706
 102420684.76345        17.800    25012194.00445  25012192.54706  98153142.04406
        38.600  
  21358198.85907 114091580.29607        43.700    21358199.44107  21358204.06606
  88737927.40206        39.900    21358204.60906                                
                
  20260461.75008 106469572.26108        46.500                                  
  82963242.81949        41.600    20260467.38749                                
                
  21302491.63306 113954013.80806        38.800    21302489.73005  21302494.40206
  88630861.81206        40.500    21302494.46906                                
                
  24033513.66406 126296940.59406        40.200                    24033523.35905
  98413224.67346        23.500    24033524.22746  24033524.07407  94312671.49507
        43.800  
  19484305.78109 104045127.77209        52.500    19484305.01209  19484307.98009
  80924001.96909        50.600    19484308.34409                                
                
  25200328.71903 132428648.74903        33.000                                  
 103191143.69843        13.900    25200337.18443                                
                
  22673190.47707 121328828.21407        44.800    22673189.09007  22673195.99607
  94366877.86607        41.600    22673196.49607                                
                
  20295012.75009 106651090.32609        49.200                    20295022.58609
  83104741.49249        43.700    20295023.02049  20295021.18409  79642031.72309
        54.100  
  21581036.27308 113409143.29808        47.600                    21581045.57008
  88370788.34149        39.500    21581045.28949  21581044.91409  84688674.67309
        50.600  
  21973112.54708 117129068.03108        47.000    21973111.94508  21973119.46105
  91100407.87905        36.000    21973119.68405                                
                
  24004187.74205 126142938.66105        37.700                                  
  98293158.05646        21.300    24004195.46146                                
                
  24232382.04705 127342035.75205        36.200                                  
  99227597.71045        18.300    24232388.91845                                
                
 19  6  7  4  1 55.0000000  0 17G 7R20G18G 8G27R16G11R19G 9R 9G16R21  .000000000
                                G 1G30R10G22G28
  20241162.13309 106368258.59709        50.300                    20241168.71509
  82884220.59849        43.700    20241168.58649                                
                
  19558875.72708 104590123.46808        47.900    19558874.96508  19558880.78509
  81347894.23709        49.300    19558880.10509                                
                
  20347497.20309 106926849.57709        50.700                                  
  83319635.39449        41.800    20347504.43449                                
                
  22346603.96908 117432264.08108        45.600                    22346613.92207
  91505620.56149        35.000    22346613.62149  22346612.52009  87692881.70909
        48.400  
  25014740.64103 131453458.85703        33.800                    25014751.90206
 102431157.40945        19.000    25014751.28145  25014750.24606  98163178.31306
        39.100  
  21360594.15607 114104375.88807        43.500    21360595.27007  21360598.23806
  88747879.51606        39.100    21360599.91006                                
                
  20260586.67208 106470228.61208        46.600                                  
  82963754.26049        42.300    20260592.22349                                
                
  21305707.09406 113971211.76006        38.300    21305705.56605  21305710.18807
  88644237.98506        40.400    21305709.60506                                
                
  24035538.57006 126307583.28906        40.200                    24035548.62505
  98421517.66946        22.200    24035549.26246  24035549.63707  94320618.98507
        43.000  
  19482938.48409 104037829.28809        52.200    19482937.98809  19482940.96509
  80918325.36209        50.600    19482941.53509                                
                
  25202152.89102 132438238.76802        31.600                                  
 103198616.45345        15.600    25202162.23045                                
                
  22670215.24207 121312910.74207        44.300    22670213.92607  22670221.69907
  94354497.61606        40.700    22670221.73806                                
                
  20293821.50009 106644828.99509        49.100                    20293831.04309
  83099862.53849        43.800    20293831.44149  20293829.72709  79637356.06709
        54.300  
  21579010.67208 113398497.64808        47.700                    21579020.00808
  88362493.03349        39.600    21579019.42249  21579019.11309  84680725.00209
        50.800  
  21969671.05508 117110719.83708        46.400    21969669.78908  21969678.70705
  91086137.06505        36.400    21969677.64505                                
                
  24002415.60906 126133623.17706        38.300                                  
  98285899.22646        20.900    24002422.62946                                
                
  24230611.71105 127332737.02105        36.400                                  
  99220351.93645        18.600    24230619.34045                                
                
 19  6  7  4  2  0.0000000  0 17G 7R20G18G 8G27R16G11R19G 9R 9G16R21  .000000000
                                G 1G30R10G22G28
  20240861.96109 106366682.48509        50.800                    20240868.56609
  82882992.45649        43.900    20240868.56349                                
                
  19558826.83608 104589862.43108        47.500    19558826.11708  19558832.14109
  81347691.21009        49.100    19558831.23409                                
                
  20348010.73409 106929549.03809        50.200                                  
  83321738.86649        41.900    20348018.19549                                
                
  22348665.71908 117443098.18908        45.700                    22348675.78107
  91514062.71949        35.200    22348674.87149  22348674.24609  87700972.11009
        48.600  
  25017297.67203 131466894.94203        32.300                    25017308.42605
 102441627.04445        18.300    25017308.12145  25017306.78906  98173211.80506
        39.200  
  21362992.78107 114117185.16707        43.800    21362993.00407  21362996.33606
  88757842.27206        39.100    21362997.82006                                
                
  20260714.25008 106470898.84008        46.700                                  
  82964276.51049        41.700    20260719.80149                                
                
  21308921.57806 113988415.26006        38.300    21308921.27305  21308926.13707
  88657618.47806        40.900    21308925.49206                                
                
  24037563.25806 126318224.55206        39.900                    24037572.91805
  98429809.54346        22.000    24037573.71946  24037574.78107  94328565.37007
        42.900  
  19481575.07809 104030545.69909        52.700    19481574.03509  19481577.14509
  80912660.34509        50.300    19481577.60509                                
                
  25203979.02303 132447832.02503        32.000                                  
 103206091.67044        14.800    25203987.41444                                
                
  22667243.60207 121297004.19207        44.900    22667242.35907  22667249.07407
  94342125.85807        41.100    22667248.92607                                
                
  20292633.16409 106638584.29709        49.700                    20292642.87909
  83094996.52949        43.700    20292643.13349  20292641.39509  79632692.82409
        54.300  
  21576986.94508 113387864.17408        47.700                    21576996.12108
  88354207.20749        39.300    21576996.09049  21576995.69509  84672784.41909
        50.700  
  21966229.25008 117092373.99008        47.100    21966228.33608  21966235.25805
  91071868.07305        36.500    21966235.78105                                
                
  24000643.12506 126124308.24406        38.100                                  
  98278640.83746        20.400    24000650.41846                                
                
  24228842.86705 127323434.86705        36.300                                  
  99213103.50045        18.600    24228849.16045                                
                
 19  6  7  4  2  5.0000000  0 17G 7R20G18G 8G27R16G11R19G 9R 9G16R21  .000000000
                                G 1G30R10G22G28
  20240565.71109 106365123.14509        50.800                    20240571.88709
  82881777.38049        44.000    20240571.77049                                
                
  19558780.54708 104589619.76508        47.600    19558780.57008  19558786.62509
  81347502.47109        49.200    19558785.96909                                
                
  20348527.68009 106932265.85209        50.500                                  
  83323855.86749        41.600    20348535.15649                                
                
  22350727.62508 117453932.53008        45.700                    22350737.35907
  91522505.04849        35.200    22350736.76649  22350735.60209  87709062.67509
        48.800  
  25019853.56304 131480327.20704        34.600                    25019864.46905
 102452093.77945        18.600    25019864.38745  25019863.03106  98183242.40406
        39.100  
  21365393.85207 114130008.04207        44.000    21365393.21507  21365397.12506
  88767815.60406        39.400    21365398.49206                                
                
  20260844.28108 106471582.92908        47.100                                  
  82964809.56349        41.300    20260849.94549                                
                
  21312141.13305 114005624.31505        37.800    21312138.59405  21312142.75407
  88671003.29206        40.600    21312142.84006                                
                
  24039588.32806 126328864.31006        40.700                    24039598.07005
  98438100.27346        22.500    24039598.27046  24039599.06307  94336510.65107
        42.900  
  19480213.61709 104023276.95709        52.800    19480213.00409  19480216.25009
  80907006.88109        50.100    19480216.38309                                
                
  25205805.35203 132457428.34303        32.300                                  
 103213569.30044        14.800    25205813.68444                                
                
  22664272.03907 121281108.60107        44.500    22664271.06307  22664277.79307
  94329762.63507        41.400    22664278.49207                                
                
  20291447.94509 106632356.26109        49.300                    20291457.42609
  83090143.52349        43.800    20291457.89149  20291456.23409  79628042.01209
        54.400  
  21574965.78908 113377242.92308        47.800                    21574975.32008
  88345930.90449        39.600    21574974.86349  21574974.52309  84664852.96009
        50.700  
  21962787.51608 117074030.65408        47.000    21962787.07008  21962794.77705
  91057601.03405        35.900    21962794.84805                                
                
  23998870.54706 126114993.88306        38.400                                  
  98271382.88446        22.300    23998877.54746                                
                
  24227071.68805 127314129.24205        35.300                                  
  99205852.36345        17.400    24227078.37145                                
                
 19  6  7  4  2 10.0000000  0 17G 7R20G18G 8G27R16G11R19G 9R 9G16R21  .000000000
                                G 1G30R10G22G28
  20240272.13309 106363580.57409        50.600                    20240278.23009
  82880575.37349        43.800    20240278.36749                                
                
  19558739.58608 104589395.74908        47.300    19558738.94508  19558745.07009
  81347328.23909        49.400    19558744.11709                                
                
  20349048.08609 106935000.02309        49.800                                  
  83325986.38349        42.200    20349055.53149                                
                
  22352789.18008 117464767.03508        45.500                    22352799.37107
  91530947.52149        35.000    22352798.70749  22352797.74209  87717153.37709
        48.600  
  25022408.49204 131493755.78204        34.600                    25022419.94105
 102462557.57545        19.600    25022419.81645  25022418.58606  98193270.14106
        39.200  
  21367796.17207 114142844.68007        43.300    21367796.59807  21367799.37106
  88777799.63806        39.500    21367801.59006                                
                
  20260977.03908 106472280.94808        46.900                                  
  82965353.47249        41.500    20260982.92249                                
                
  21315359.00005 114022839.04405        37.900    21315356.87505  21315360.02007
  88684392.51107        41.200    21315360.92207                                
                
  24041612.63306 126339502.61506        40.700                    24041621.55905
  98446389.91246        22.200    24041622.20346  24041623.19907  94344454.85007
        42.300  
  19478855.22709 104016023.14609        52.700    19478854.66409  19478857.36709
  80901365.02009        50.500    19478858.07809                                
                
  25207630.86702 132467027.95802        31.900                                  
 103221049.47145        16.300    25207640.23045                                
                
  22661303.84408 121265224.10408        45.500    22661302.92607  22661309.70307
  94317408.03007        41.300    22661309.88707                                
                
  20290265.84409 106626144.91209        49.000                    20290275.67609
  83085303.51849        44.100    20290276.02349  20290274.20709  79623403.67009
        54.200  
  21572946.93008 113366633.91808        47.800                    21572956.28508
  88337664.14549        38.900    21572956.02749  21572955.75009  84656930.64109
        51.000  
  21959347.81308 117055689.90808        46.400    21959346.33608  21959354.48806
  91043336.01905        36.200    21959354.09805                                
                
  23997098.44506 126105680.11906        38.100                                  
  98264125.41246        20.100    23997105.18846                                
                
  24225299.23405 127304820.23505        36.000                                  
  99198598.61545        17.800    24225306.78145                                
                
 19  6  7  4  2 15.0000000  0 17G 7R20G18G 8G27R16G11R19G 9R 9G16R21  .000000000
                                G 1G30R10G22G28
  20239981.59409 106362054.75509        50.500                    20239987.80509
  82879386.42049        44.000    20239987.94949                                
                
  19558700.02308 104589189.93908        47.300    19558700.61308  19558706.64809
  81347168.15909        48.600    19558705.41409                                
                
  20349571.64109 106937751.43809        49.400                                  
  83328130.34149        41.700    20349578.96549                                
                
  22354851.01608 117475601.73108        45.500                    22354860.84807
  91539390.14049        35.700    22354860.39149  22354859.41009  87725244.21709
        48.500  
  25024963.67203 131507180.42203        33.600                    25024973.85905
 102473018.36345        17.400    25024974.16845  25024973.20706  98203295.07306
        38.700  
  21370202.95307 114155694.93107        44.100    21370202.21907  21370205.45706
  88787794.26106        38.900    21370207.08206                                
                
  20261112.62508 106472992.81108        47.500                                  
  82965908.16849        42.000    20261118.41049                                
                
  21318578.72706 114040059.31206        38.100    21318575.78905  21318580.37907
  88697786.04806        40.800    21318580.11706                                
                
  24043636.23406 126350139.38406        40.000                    24043644.65203
  98454678.27346        21.300    24043645.75846  24043646.85507  94352397.90407
        41.700  
  19477498.91409 104008784.25609        52.800    19477498.99609  19477501.83609
  80895734.76909        50.600    19477502.44509                                
                
  25209459.46902 132476630.82902        31.800                                  
 103228532.19545        15.600    25209467.55145                                
                
  22658337.48408 121249350.57808        45.000    22658336.61707  22658343.74207
  94305061.95206        40.900    22658343.61306                                
                
  20289087.01609 106619950.24609        49.300                    20289096.76609
  83080476.49849        43.700    20289097.24249  20289095.35909  79618777.78609
        54.100  
  21570930.48408 113356037.11208        47.700                    21570939.73408
  88329406.89349        39.300    21570939.55149  21570939.13709  84649017.45609
        50.800  
  21955906.75808 117037351.70808        45.900    21955905.84408  21955913.86706
  91029072.97705        36.300    21955913.87905                                
                
  23995325.53906 126096366.95806        38.100                                  
  98256868.38446        21.300    23995333.04746                                
                
  24223527.81305 127295507.73105        36.400                                  
  99191342.14045        18.600    24223535.12945                                
                
 19  6  7  4  2 20.0000000  0 17G 7R20G18G 8G27R16G11R19G 9R 9G16R21  .000000000
                                G 1G30R10G22G28
  20239694.42209 106360545.73509        50.300                    20239700.80509
  82878210.55449        43.900    20239700.89149                                
                
  19558665.64808 104589002.59908        47.500    19558665.31608  19558671.71909
  81347022.44809        49.000    19558670.41009                                
                
  20350098.66409 106940520.23209        49.700                                  
  83330287.83349        41.800    20350105.89849                                
                
  22356913.12508 117486436.69208        46.100                    22356922.70308
  91547832.95549        35.100    22356922.22749  22356921.18009  87733335.23209
        48.400  
  25027517.23403 131520601.34803        33.500                    25027528.05505
 102483476.16945        16.900    25027528.25845  25027527.31606  98213317.20506
        39.000  
  21372611.27307 114168558.91907        43.400    21372610.49607  21372614.12506
  88797799.56606        39.900    21372615.42206                                
                
  20261250.90608 106473718.54508        47.200                                  
  82966473.67349        42.000    20261256.51249                                
                
  21321797.24206 114057285.11806        38.200    21321795.76205  21321800.70707
  88711183.89406        40.400    21321800.33206                                
                
  24045660.61706 126360774.66606        40.900                    24045669.32804
  98462965.54346        20.900    24045669.13346  24045670.93407  94360339.81507
        41.100  
  19476146.85209 104001560.30209        53.000    19476146.30509  19476149.15209
  80890116.14009        50.300    19476149.62509                                
                
  25211286.70303 132486236.91503        33.900                                  
 103236017.41545        16.300    25211295.89845                                
                
  22655372.97708 121233487.96508        45.200    22655372.56607  22655378.52306
  94292724.37306        40.200    22655379.28106                                
                
  20287911.57009 106613772.30509        49.300                    20287921.08209
  83075662.52249        44.200    20287921.66449  20287919.69909  79614164.38509
        54.100  
  21568916.50808 113345452.57408        47.900                    21568925.58208
  88321159.20549        39.400    21568925.39149  21568925.06309  84641113.41609
        50.900  
  21952466.82808 117019016.08508        46.300    21952466.16008  21952473.96105
  91014811.92805        36.000    21952474.19105                                
                
  23993553.46106 126087054.36406        38.700                                  
  98249611.82546        21.500    23993561.00846                                
                
  24221754.99205 127286191.84305        36.500                                  
  99184082.99245        19.300    24221762.15645                                
                
 19  6  7  4  2 25.0000000  0 17G 7R20G18G 8G27R16G11R19G 9R 9G16R21  .000000002
                                G 1G30R10G22G28
  20239410.66409 106359053.50809        50.500                    20239416.74609
  82877047.77249        43.700    20239416.85949                                
                
  19558633.93008 104588833.71608        47.100    19558633.75008  19558640.00809
  81346891.09309        49.500    19558638.97309                                
                
  20350628.56309 106943306.34309        49.900                                  
  83332458.82649        41.700    20350636.05549                                
                
  22358975.10908 117497271.88708        46.100                    22358984.32007
  91556275.96549        35.200    22358984.14849  22358983.05509  87741426.44809
        48.500  
  25030069.71102 131534018.46902        31.600                    25030081.45704
 102493931.00945        17.800    25030081.58245  25030080.62906  98223336.40106
        39.400  
  21375022.36707 114181436.53907        44.500    21375021.05107  21375023.62907
  88807815.47906        40.100    21375026.06606                                
                
  20261391.52308 106474458.14608        47.800                                  
  82967049.98249        42.000    20261397.08649                                
                
  21325017.59405 114074516.49205        37.500    21325017.32005  21325021.91407
  88724586.06407        41.000    21325021.38307                                
                
  24047683.75006 126371408.38306        39.900                    24047692.46104
  98471251.57446        20.900    24047692.75046  24047694.58206  94368280.61306
        40.900  
  19474796.53109 103994351.34009        52.900    19474796.20309  19474799.18009
  80884509.16709        50.600    19474799.59809                                
                
  25213115.07803 132495846.13303        33.500                                  
 103243505.13245        15.600    25213124.98445                                
                
  22652411.50808 121217636.37908        45.100    22652410.41007  22652416.02706
  94280395.34706        39.800    22652416.35906                                
                
  20286738.96109 106607611.03909        49.300                    20286748.89109
  83070861.53949        44.200    20286749.13749  20286747.25009  79609563.44609
        54.100  
  21566904.49208 113334880.30808        47.800                    21566913.68008
  88312921.07449        39.300    21566913.44549  21566913.16809  84633218.54609
        50.700  
  21949028.96908 117000682.88808        45.500    21949026.87108  21949033.95705
  91000552.77705        35.500    21949034.78905                                
                
  23991781.64805 126077742.38705        37.600                                  
  98242355.75146        21.300    23991788.88346                                
                
  24219981.46105 127276872.49205        36.000                                  
  99176821.15045        18.300    24219988.73045                                
                
 19  6  7  4  2 30.0000000  0 17G 7R20G18G 8G27R16G11R19G 9R 9G16R21  .000000000
                                G 1G30R10G22G28
  20239129.77309 106357577.90109        50.700                    20239135.98809
  82875897.95049        43.800    20239136.09849                                
                
  19558605.95308 104588683.01108        47.200    19558605.43008  19558611.42609
  81346773.87609        48.800    19558610.77709                                
                
  20351162.07009 106946109.60909        50.100                                  
  83334643.18949        42.400    20351169.45349                                
                
  22361036.68008 117508107.15608        46.100                    22361046.16807
  91564719.02249        35.000    22361046.03549  22361044.86709  87749517.72509
        48.200  
  25032622.39802 131547431.56202        31.800                    25032633.73004
 102504382.77845        15.600    25032634.16845  25032632.56306  98233352.70906
        38.900  
  21377435.01607 114194327.70607        44.500    21377434.19507  21377437.52007
  88817841.92606        39.700    21377439.31606                                
                
  20261535.09408 106475211.49708        47.000                                  
  82967637.00149        42.500    20261540.39849                                
                
  21328241.42206 114091753.24306        38.300    21328238.91805  21328243.89507
  88737992.42407        41.000    21328243.67207                                
                
  24049705.96106 126382040.47406        39.800                    24049715.46503
  98479536.32646        20.400    24049715.93846  24049717.35507  94376220.15007
        41.300  
  19473449.93009 103987157.21509        52.700    19473448.99609  19473451.84009
  80878913.73409        50.300    19473452.42209                                
                
  25214943.74202 132505458.49402        31.500                                  
 103250995.23045        16.300    25214954.35545                                
                
  22649451.42208 121201795.74708        45.200    22649449.99207  22649456.58606
  94268074.86706        39.200    22649456.12106                                
                
  20285569.80509 106601466.38609        49.200                    20285579.55509
  83066073.50349        44.100    20285580.02049  20285577.86309  79604974.90909
        54.100  
  21564894.87508 113324320.21508        47.900                    21564904.15208
  88304692.42149        39.500    21564904.11349  21564903.72709  84625332.75409
        51.300  
  21945589.67208 116982352.09808        46.400    21945588.35908  21945595.45705
  90986295.49105        35.700    21945595.87905                                
                
  23990009.39105 126068430.93005        37.600                                  
  98235100.03546        20.600    23990016.90646                                
                
  24218207.82005 127267549.70505        36.200                                  
  99169556.65145        19.000    24218214.84445                                
                
 19  6  7  4  2 35.0000000  0 17G 7R20G18G 8G27R16G11R19G 9R 9G16R21  .000000000
                                G 1G30R10G22G28
  20238852.36709 106356119.17309        51.300                    20238858.28909
  82874761.27449        43.900    20238858.46549                                
                
  19558580.89808 104588550.78608        47.600    19558580.94108  19558587.23409
  81346671.03709        49.300    19558586.02009                                
                
  20351698.86709 106948930.22509        49.500                                  
  83336841.07149        41.700    20351706.19949                                
                
  22363098.78108 117518942.73808        46.100                    22363108.28907
  91573162.32649        35.200    22363107.85949  22363106.82009  87757609.22009
        48.300  
  25035174.12503                        32.000                    25035185.91003
 102514803.71813        14.800    25035186.03144  25035184.78906  98243366.21906
        39.500  
  21379850.05507 114207232.63407        43.800    21379850.12107  21379853.93806
  88827879.07506        39.800    21379855.41006                                
                
  20261680.78108 106475978.78608        47.200                                  
  82968234.88549        41.500    20261686.52349                                
                
  21331464.33605 114108995.53005        37.700    21331462.51605  21331466.57007
  88751403.09206        40.400    21331466.85906                                
                
  24051729.67206 126392671.10306        40.000                    24051738.47703
  98487819.94645        19.900    24051738.51245  24051740.21506  94384158.60406
        40.900  
  19472104.67209 103979978.13909        52.100    19472104.59809  19472107.93009
  80873330.00109        50.500    19472108.08209                                
                
  25216773.30503                        33.300                                  
                        15.600    25216784.29345                                
                
  22646492.84407 121185966.16107        44.700    22646492.30107  22646497.99606
  94255762.98306        39.700    22646497.94906                                
                
  20284403.98409 106595338.50009        49.300                    20284413.59409
  83061298.52349        43.900    20284413.73449  20284411.78909  79600398.88009
        54.100  
  21562888.03908 113313772.45608        47.500                    21562896.85208
  88296473.38749        39.000    21562896.90249  21562896.63309  84617456.17809
        50.800  
  21942150.03908 116964023.92708        45.800    21942149.89508  21942156.70705
  90972040.25805        36.000    21942157.59805                                
                
  23988238.26606 126059120.14906        38.000                                  
  98227844.88446        21.800    23988245.17246                                
                
  24216432.58605 127258223.52505        36.700                                  
  99162289.52145        18.600    24216440.30945                                
                
 19  6  7  4  2 40.0000000  0 17G 7R20G18G 8G27R16G11R19G 9R 9G16R21  .000000000
                                G 1G30R10G22G28
  20238577.94509 106354677.22109        50.500                    20238583.88309
  82873637.67349        43.900    20238584.07049                                
                
  19558560.28108 104588436.86508        47.400    19558559.46908  19558565.41009
  81346582.43009        49.100    19558564.79709                                
                
  20352238.98409 106951768.16609        49.500                                  
  83339052.45949        41.500    20352246.33649                                
                
  22365160.58608 117529778.49708        45.500                    22365170.23807
  91581605.77749        35.100    22365170.09849  22365168.82009  87765700.85509
        48.200  
  25037726.07003 131574246.62603        32.400                    25037736.41803
 102525277.64245        17.400    25037736.54345  25037736.05906  98253376.86906
        40.000  
  21382268.53107 114220151.21907        43.900    21382268.38707  21382272.58207
  88837926.84306        39.700    21382273.43806                                
                
  20261829.50808 106476759.95808        47.800                                  
  82968843.58849        41.700    20261835.16049                                
                
  21334687.90605 114126243.27805        37.600    21334686.78905  21334690.89107
  88764818.00306        40.700    21334691.02306                                
                
  24053751.64106 126403300.16406        39.000                    24053761.03104
  98496102.35445        19.300    24053761.23445  24053762.53506  94392095.88506
        40.600  
  19470763.39109 103972814.15209        52.500    19470763.02009  19470766.28909
  80867758.00709        50.000    19470766.41409                                
                
  25218604.73403 132524692.98503        32.400                                  
 103265983.15743        13.900    25218614.48443                                
                
  22643536.25007 121170147.69607        44.900    22643535.67207  22643542.29306
  94243459.70406        39.100    22643541.37506                                
                
  20283240.85909 106589227.33609        49.200                    20283250.38309
  83056536.58149        43.900    20283250.84849  20283248.90209  79595835.36209
        54.200  
  21560883.10208 113303237.00608        47.600                    21560892.29708
  88288263.94749        39.300    21560892.07449  21560891.77009  84609588.78909
        50.900  
  21938713.25008 116945698.30208        46.000    21938711.98808  21938719.84805
  90957786.99805        36.200    21938719.81305                                
                
  23986466.19506 126049810.00706        38.100                                  
  98220590.22846        21.300    23986473.55546                                
                
  24214657.48405 127248894.01605        36.400                                  
  99155019.72945        17.800    24214664.36345                                
                
 19  6  7  4  2 45.0000000  0 17G 7R20G18G 8G27R16G11R19G 9R 9G16R21  .000000000
                                G 1G30R10G22G28
  20238306.46109 106353252.03709        50.800                    20238312.56609
  82872527.13249        43.900    20238312.94549                                
                
  19558542.53908 104588341.42508        47.800    19558541.78908  19558547.52009
  81346508.18909        48.900    19558546.96509                                
                
  20352782.39809 106954623.42809        50.300                                  
  83341277.33249        41.900    20352789.60549                                
                
  22367222.68808 117540614.34308        45.700                    22367232.39107
  91590049.28749        35.400    22367232.06349  22367230.78909  87773792.55509
        48.200  
  25040275.20303 131587648.36903        32.400                    25040286.95303
 102535720.49445        15.600    25040286.73845  25040285.75806  98263384.68106
        39.000  
  21384689.75007 114233083.33607        43.900    21384689.40207  21384692.98407
  88847985.13906        39.800    21384694.51206                                
                
  20261981.13308 106477554.97108        47.800                                  
  82969463.07749        41.700    20261986.61749                                
                
  21337913.19506 114143496.44706        38.100    21337912.75005  21337916.77307
  88778237.12607        41.100    21337916.34807                                
                
  24055774.24206 126413927.67406        38.400                    24055784.09004
  98504383.54945        19.300    24055783.59445  24055784.34006  94400032.01906
        39.400  
  19469425.30509 103965665.10509        52.900    19469424.27309  19469426.95309
  80862197.63309        50.400    19469427.59409                                
                
  25220435.11703 132534315.02103        33.200                                  
 103273480.83045        16.300    25220445.13745                                
                
  22640582.00808 121154340.28508        45.100    22640581.89107  22640588.62106
  94231165.06206        39.600    22640587.24206                                
                
  20282081.05509 106583132.90409        49.200                    20282090.93009
  83051787.67649        43.800    20282091.03949  20282089.13709  79591284.32509
        54.100  
  21558880.34408 113292713.85808        47.600                    21558889.72308
  88280064.09049        39.400    21558889.63349  21558889.33609  84601730.59409
        50.900  
  21935275.95308 116927375.27208        46.800    21935274.52308  21935282.74605
  90943535.76905        36.400    21935282.37905                                
                
  23984694.92206 126040500.54606        38.500                                  
  98213336.09546        21.300    23984701.93446                                
                
  24212881.42205 127239561.10205        37.200                                  
  99147747.35645        18.600    24212888.50445                                
                
 19  6  7  4  2 50.0000000  0 17G 7R20G18G 8G27R16G11R19G 9R 9G16R21  .000000000
                                G 1G30R10G22G28
  20238038.54709 106351843.58409        50.400                    20238044.62109
  82871429.63549        44.300    20238044.86349                                
                
  19558526.71908 104588264.23008        47.200    19558527.13308  19558533.61309
  81346448.14309        48.900    19558532.53109                                
                
  20353329.12509 106957495.97909        50.300                                  
  83343515.68249        42.500    20353336.34049                                
                
  22369284.95308 117551450.34408        45.900                    22369294.75007
  91598492.91549        34.600    22369294.00849  22369292.70708  87781884.35908
        47.900  
  25042824.87502 131601046.31102        31.900                    25042835.63704
 102546160.47245        16.900    25042836.06645  25042835.59406  98273389.60106
        40.400  
  21387112.90607 114246029.13207        43.600    21387112.83607  21387116.80506
  88858054.07106        39.600    21387117.98006                                
                
  20262134.63309 106478363.80109        48.100                                  
  82970093.33149        42.100    20262140.42249                                
                
  21341139.43806 114160755.10306        38.800    21341138.80105  21341142.18807
  88791660.51206        40.600    21341142.56306                                
                
  24057796.90606 126424553.52006        39.400                    24057805.87904
  98512663.44046        20.900    24057805.87146  24057806.20706  94407966.91606
        39.200  
  19468088.25009 103958531.04709        53.000    19468088.17209  19468091.12509
  80856648.91609        50.600    19468091.60909                                
                
  25222266.10203 132543940.29003        32.200                                  
 103280981.01644        14.800    25222276.30544                                
                
  22637631.96108 121138543.94808        45.600    22637630.79707  22637636.83606
  94218878.99706        39.300    22637635.55506                                
                
  20280924.25809 106577055.16509        49.300                    20280934.17209
  83047051.77849        43.900    20280934.43449  20280932.53909  79586745.75209
        54.100  
  21556880.33608 113282202.97708        47.600                    21556889.61308
  88271873.79049        39.800    21556889.46949  21556889.06609  84593881.55709
        50.800  
  21931838.43808 116909054.88008        46.600    21931837.97708  21931844.18405
  90929286.57005        36.700    21931845.65605                                
                
  23982923.68806 126031191.77006        38.500                                  
  98206082.52946        21.500    23982930.66446                                
                
  24211104.95305 127230224.73105        36.300                                  
  99140472.23246        20.100    24211112.21946                                
                
 19  6  7  4  2 55.0000000  0 17G 7R20G18G 8G27R16G11R19G 9R 9G16R21  .000000000
                                G 1G30R10G22G28
  20237773.67209 106350451.92909        50.300                    20237779.91009
  82870345.22149        43.900    20237780.09849                                
                
  19558516.76608 104588205.39808        47.300    19558516.18808  19558522.47309
  81346402.39309        49.000    19558521.51609                                
                
  20353878.59409 106960385.78309        50.200                                  
  83345767.47349        42.000    20353886.23849                                
                
  22371346.48408 117562286.44108        46.000                    22371356.63707
  91606936.62549        34.900    22371356.02049  22371354.92209  87789976.25309
        48.500  
  25045374.78103 131614440.36503        33.700                    25045384.57803
 102556597.40745        16.900    25045384.97345  25045384.19106  98283391.68206
        40.200  
  21389539.77307 114258988.54807        43.800    21389538.94507  21389542.96507
  88868133.60106        39.800    21389544.12506                                
                
  20262291.16408 106479186.44908        47.400                                  
  82970734.35349        41.800    20262296.84849                                
                
  21344367.53106 114178019.06306        38.300    21344366.12905  21344370.35207
  88805088.03106        40.700    21344369.91006                                
                
  24059817.07006 126435177.83306        38.300                    24059828.78505
  98520942.13845        19.000    24059827.78945  24059828.22706  94415900.66606
        39.900  
  19466755.64109 103951412.09509        53.200    19466755.05109  19466757.74209
  80851111.95509        50.100    19466758.39809                                
                
  25224098.21102 132553568.80802        31.800                                  
 103288483.65443        13.900    25224108.14843                                
                
  22634680.68807 121122758.64207        44.600    22634680.06307  22634685.69506
  94206601.55706        39.100    22634685.94506                                
                
  20279771.03109 106570994.15809        49.300                    20279780.65609
  83042328.91349        43.800    20279781.18049  20279779.32409  79582219.67309
        54.200  
  21554882.52308 113271704.43108        47.900                    21554891.62508
  88263693.10249        40.100    21554891.80949  21554891.18409  84586041.72809
        50.800  
  21928402.39808 116890737.21908        46.900    21928401.73808  21928407.80505
  90915039.50705        36.500    21928409.24205                                
                
  23981152.42206 126021883.67706        38.300                                  
  98198829.44746        22.000    23981159.37946                                
                
  24209327.60905 127220884.96905        37.000                                  
  99133194.50746        20.600    24209334.82446                                
                
 19  6  7  4  3  0.0000000  0 17G 7R20G18G 8G27R16G11R19G 9R 9G16R21  .000000000
                                G 1G30R10G22G28
  20237512.17209 106349076.99209        50.400                    20237518.31309
  82869273.83849        44.300    20237518.42249                                
                
  19558508.86708 104588164.87408        47.000    19558508.64508  19558514.85209
  81346370.86909        48.900    19558513.91409                                
                
  20354432.30509 106963292.85509        50.300                                  
  83348032.71849        41.700    20354439.39849                                
                
  22373408.45308 117573122.72008        46.600                    22373418.62107
  91615380.47549        35.000    22373418.10249  22373416.71109  87798068.27709
        48.200  
  25047922.72705 131627830.57805        35.400                    25047932.71904
 102567031.34645        19.300    25047933.14545  25047932.32406  98293390.84206
        40.900  
  21391968.19507 114271961.56207        43.800    21391967.81307  21391971.93006
  88878223.70706        39.500    21391972.61706                                
                
  20262450.73408 106480022.97608        47.500                                  
  82971386.19049        41.700    20262456.08649                                
                
  21347596.03106 114195288.42006        38.000    21347594.43005  21347598.62906
  88818519.73407        41.000    21347598.19107                                
                
  24061839.69506 126445800.49806        38.400                    24061850.94905
  98529219.47546        21.100    24061849.80546  24061849.99206  94423833.17106
        40.100  
  19465425.57809 103944308.16609        52.900    19465424.72709  19465427.82009
  80845586.67009        50.200    19465428.22309                                
                
  25225931.50802                        31.900                                  
                        13.900    25225941.32043                                
                
  22631734.15607 121106984.39907        44.900    22631733.14807  22631738.89106
  94194332.70306        39.700    22631738.18806                                
                
  20278620.87509 106564949.86809        49.100                    20278630.58609
  83037619.07649        44.000    20278630.89849  20278629.24609  79577706.08709
        54.200  
  21552887.17208 113261218.18408        47.800                    21552896.31608
  88255522.00049        39.300    21552896.01249  21552895.77009  84578211.09909
        50.800  
  21924967.16408 116872422.10308        46.800    21924965.44108  21924973.03905
  90900794.42705        36.500    21924973.41805                                
                
  23979381.60206 126012576.29806        38.100                                  
  98191576.95246        20.900    23979388.37146                                
                
  24207549.68805 127211541.77505        36.800                                  
  99125914.14146        20.100    24207556.67646                                
                
 19  6  7  4  3  5.0000000  0 17G 7R20G18G 8G27R16G11R19G 9R 9G16R21  .000000000
                                G 1G30R10G22G28
  20237253.76609 106347718.78409        51.200                    20237259.88309
  82868215.49749        43.800    20237259.82849                                
                
  19558505.05508 104588142.56208        47.400    19558504.28508  19558510.78909
  81346353.51709        49.300    19558509.78909                                
                
  20354988.22709 106966217.18609        49.900                                  
  83350311.41649        42.200    20354995.85249                                
                
  22375470.87508 117583959.08608        45.600                    22375480.98807
  91623824.38949        35.200    22375480.31349  22375479.09409  87806160.36509
        48.100  
  25050469.59404 131641216.93904        34.800                    25050479.43003
 102577462.23845        17.800    25050480.44545  25050479.63707  98303387.13107
        41.300  
  21394399.71107 114284948.18507        44.000    21394398.51607  21394401.90607
  88888324.39306        39.800    21394403.95706                                
                
  20262612.33608 106480873.24508        46.800                                  
  82972048.73049        41.600    20262618.00849                                
                
  21350826.14806 114212563.13606        38.200    21350824.10205  21350828.46107
  88831955.62406        40.700    21350827.62506                                
                
  24063860.55506 126456421.47106        38.800                    24063871.57805
  98537495.57446        22.300    24063871.39846  24063871.14506  94431764.42606
        40.700  
  19464097.96909 103937219.21209        52.700    19464097.20309  19464099.91009
  80840073.03809        50.100    19464100.71109                                
                
  25227764.86703                        32.300                                  
                        14.800    25227774.72344                                
                
  22628788.74208 121091221.19908        45.100    22628786.53507  22628792.43806
  94182072.43206        39.700    22628792.66006                                
                
  20277473.73409 106558922.25709        49.800                    20277483.77309
  83032922.23649        44.200    20277483.95349  20277482.10509  79573204.95809
        54.100  
  21550893.90608 113250744.22908        47.800                    21550903.25008
  88247360.47949        39.100    21550903.14849  21550902.67609  84570389.62809
        51.100  
  21921531.41408 116854109.51908        45.800    21921530.11708  21921538.69905
  90886551.31605        36.000    21921538.16005                                
                
  23977610.35906 126003269.53706        38.300                                  
  98184324.91946        21.500    23977617.51246                                
                
  24205771.32805 127202195.11305        37.000                                  
  99118630.99245        19.000    24205778.44545                                
                
 19  6  7  4  3 10.0000000  0 17G 7R20G18G 8G27R16G11R19G 9R 9G16R21  .000000000
                                G 1G30R10G22G28
  20236998.11709 106346377.43909        50.500                    20237004.64509
  82867170.28449        44.000    20237004.77349                                
                
  19558503.82808 104588138.81808        47.000    19558503.72308  19558509.44909
  81346350.60909        49.100    19558509.00409                                
                
  20355548.44509 106969158.76909        50.300                                  
  83352603.56149        41.700    20355555.62149                                
                
  22377532.98408 117594795.60008        46.000                    22377542.89807
  91632268.42049        35.600    22377542.34449  22377541.33609  87814252.55509
        48.300  
  25053016.96104 131654599.50304        34.200                    25053025.78503
 102587890.21345        18.600    25053026.71145  25053026.21107  98313380.59307
        41.200  
  21396832.17207 114297948.40207        44.500    21396832.47307  21396836.56307
  88898435.65806        39.600    21396837.42206                                
                
  20262776.61708 106481737.42108        47.600                                  
  82972722.11149        41.800    20262782.44949                                
                
  21354055.51606 114229843.19206        38.200    21354054.14105  21354058.68007
  88845395.65706        40.700    21354058.12106                                
                
  24065881.37506 126467040.85806        38.600                    24065892.50005
  98545770.42146        22.900    24065892.37946  24065892.67607  94439694.49907
        41.600  
  19462773.21909 103930145.43609        53.200    19462772.47709  19462775.21909
  80834571.20909        50.100    19462776.08209                                
                
  25229600.18803 132582473.54303        33.400                                  
 103311006.82145        15.600    25229608.77045                                
                
  22625844.85908 121075469.08408        45.800    22625843.66807  22625848.77006
  94169820.79206        39.600    22625848.91806                                
                
  20276330.15609 106552911.46209        49.600                    20276339.81309
  83028238.51149        44.200    20276340.02749  20276338.33609  79568716.37809
        54.200  
  21548903.19508 113240282.69408        47.800                    21548912.67608
  88239208.62849        39.200    21548912.37149  21548911.91009  84562577.44209
        50.800  
  21918095.53108 116835799.70808        45.900    21918095.59808  21918103.35505
  90872310.35705        35.800    21918103.27005                                
                
  23975839.51606 125993963.57606        38.100                                  
  98177073.52346        22.300    23975846.40246                                
                
  24203991.72705 127192845.10605        36.800                                  
  99111345.30045        18.600    24203998.91445                                
                
 19  6  7  4  3 15.0000000  0 17G 7R20G18G 8G27R16G11R19G 9R 9G16R21  .000000000
                                G 1G30R10G22G28
  20236746.41409 106345052.88009        50.700                    20236752.57809
  82866138.16149        43.900    20236752.70349                                
                
  19558507.22708 104588153.40008        47.600    19558506.56608  19558512.48009
  81346361.95209        49.100    19558511.75409                                
                
  20356111.46109 106972117.71809        49.900                                  
  83354909.23049        42.000    20356118.70349                                
                
  22379594.95308 117605632.31008        45.200                    22379605.04707
  91640712.60049        35.200    22379604.57449  22379603.21109  87822344.89509
        48.200  
  25055561.62503 131667978.23503        33.700                    25055571.71903
 102598315.19745        17.800    25055572.21545  25055571.87907  98323371.22307
        41.100  
  21399269.04707 114310962.16607        44.500    21399268.92607  21399272.71906
  88908557.45106        39.700    21399273.71906                                
                
  20262943.56308 106482615.43008        47.400                                  
  82973406.26649        42.000    20262949.39549                                
                
  21357287.05506 114247128.66006        38.100    21357285.47705  21357290.33207
  88858839.89806        40.600    21357289.45706                                
                
  24067901.17205 126477658.59205        36.300                    24067913.25405
  98554043.97445        19.900    24067912.87945  24067913.39507  94447623.33907
        41.300  
  19461451.59409 103923086.81509        52.900    19461450.83609  19461453.53509
  80829081.16609        50.300    19461454.21909                                
                
  25231435.95303 132592114.92903        33.800                                  
 103318519.61044        14.800    25231443.60244                                
                
  22622902.15607 121059728.16907        44.900    22622901.55907  22622906.45306
  94157577.85306        40.000    22622907.66406                                
                
  20275189.58609 106546917.45409        49.300                    20275199.18409
  83023567.85349        43.900    20275199.57449  20275197.71909  79564240.33109
        54.300  
  21546914.68808 113229833.54408        47.500                    21546924.23808
  88231066.43349        39.500    21546923.81649  21546923.50809  84554774.51009
        50.900  
  21914662.08608 116817492.80508        46.400    21914661.18807  21914669.72705
  90858071.65605        36.300    21914669.02005                                
                
  23974068.40605 125984658.36305        37.700                                  
  98169822.70246        22.500    23974076.04746                                
                
  24202212.16405 127183491.70005        37.100                                  
  99104056.90445        19.000    24202218.88745                                
                
 19  6  7  4  3 20.0000000  0 17G 7R20G18G 8G27R16G11R19G 9R 9G16R21  .000000000
                                G 1G30R10G22G28
  20236497.45309 106343745.17009        50.400                    20236503.57409
  82865119.15449        43.900    20236503.83649                                
                
  19558512.99208 104588186.14408        47.700    19558512.46508  19558518.58609
  81346387.41909        49.300    19558517.86709                                
                
  20356677.56309 106975093.98609        49.300                                  
  83357228.39449        42.100    20356684.98049                                
                
  22381657.16408 117616469.13508        45.500                    22381667.25807
  91649156.87649        35.000    22381666.82049  22381665.75809  87830437.32409
        48.800  
  25058107.82003 131681353.17003        33.000                    25058117.28905
 102608737.21545        17.400    25058117.54745  25058117.38307  98333358.95407
        41.700  
  21401708.79707 114323989.61707        44.400    21401707.50407  21401710.91406
  88918689.90806        39.600    21401712.49606                                
                
  20263113.62508 106483507.31608        47.200                                  
  82974101.24149        41.400    20263119.13349                                
                
  21360519.95306 114264419.43606        38.000    21360517.61705  21360521.76607
  88872288.28306        40.900    21360521.85206                                
                
  24069922.34405 126488274.77005        36.100                    24069933.47305
  98562316.33846        20.100    24069933.40246  24069932.68007  94455550.96507
        41.300  
  19460131.96109 103916043.40509        53.000    19460131.80109  19460134.68009
  80823602.95609        51.000    19460135.18409                                
                
  25233270.13303 132601759.59303        33.900                                  
 103326034.82345        15.600    25233279.02745                                
                
  22619962.91407 121043998.40507        44.500    22619962.04307  22619968.18806
  94145343.58806        40.000    22619967.89506                                
                
  20274052.29709 106540940.26709        49.200                    20274061.67609
  83018910.30449        43.900    20274062.06349  20274060.25809  79559776.84709
        54.300  
  21544928.65608 113219396.81608        47.800                    21544937.87908
  88222933.91049        39.200    21544937.84449  21544937.47309  84546980.84109
        50.900  
  21911228.29708 116799188.74708        45.800    21911227.53908  21911233.99205
  90843835.17805        35.700    21911235.42605                                
                
  23972298.17206 125975353.92506        38.200                                  
  98162572.47146        22.600    23972305.44946                                
                
  24200431.67205 127174134.89105        37.100                                  
  99096765.89845        19.600    24200438.04345                                
                
 19  6  7  4  3 25.0000000  0 17G 7R20G18G 8G27R16G11R19G 9R 9G16R21  .000000000
                                G 1G30R10G22G28
  20236251.79709 106342454.24909        51.100                    20236257.93009
  82864113.24049        43.900    20236258.20749                                
                
  19558522.40608 104588237.32508        47.000    19558522.02708  19558528.05509
  81346427.22709        48.900    19558527.41409                                
                
  20357247.25809 106978087.48709        49.100                                  
  83359560.99449        41.700    20357254.66049                                
                
  22383720.02308 117627306.12508        45.400                    22383729.54707
  91657601.27949        35.500    22383728.84449  22383727.71509  87838529.87209
        48.500  
  25060651.78904 131694724.27604        34.400                    25060662.56305
 102619156.23545        18.300    25060662.40645  25060661.42206  98343343.88106
        40.900  
  21404150.03107 114337030.67807        44.900    21404148.88707  21404152.39107
  88928832.93906        39.500    21404154.16006                                
                
  20263285.64108 106484412.99408        47.000                                  
  82974806.96249        42.100    20263291.60549                                
                
  21363752.54706 114281715.64106        38.300    21363750.89505  21363755.96507
  88885740.87106        40.800    21363755.21906                                
                
  24071942.10904 126498889.21404        34.900                    24071953.28906
  98570587.33645        18.600    24071953.43445  24071953.14507  94463477.38007
        41.400  
  19458815.86709 103909015.05609        52.700    19458815.32409  19458818.15609
  80818136.45709        50.200    19458818.94909                                
                
  25235105.94503 132611407.56103        33.700                                  
 103333552.82345        16.900    25235114.79345                                
                
  22617024.27307 121028279.76307        44.800    22617024.18407  22617030.27706
  94133117.97106        40.400    22617030.62106                                
                
  20272917.67209 106534979.83609        49.200                    20272927.72309
  83014265.81849        43.800    20272927.95349  20272925.98009  79555325.88909
        54.200  
  21542945.13308 113208972.48508        47.500                    21542954.48008
  88214811.05349        39.400    21542954.21149  21542953.81309  84539196.43209
        50.900  
  21907794.60208 116780887.35008        46.400    21907794.29308  21907801.99205
  90829600.76005        36.900    21907802.02305                                
                
  23970527.68805 125966050.24405        37.800                                  
  98155322.86046        23.000    23970535.22346                                
                
  24198649.99205 127164774.66705        36.900                                  
  99089472.23045        19.300    24198657.16445                                
                
 19  6  7  4  3 30.0000000  0 17G 7R20G18G 8G27R16G11R19G 9R 9G16R21  .000000000
                                G 1G30R10G22G28
  20236009.50009 106341180.16209        50.800                    20236015.63309
  82863120.43949        44.000    20236015.77749                                
                
  19558535.61708 104588306.75408        47.500    19558535.28108  19558541.30109
  81346481.22509        49.000    19558540.30509                                
                
  20357820.18009 106981098.26409        49.500                                  
  83361907.05749        42.000    20357827.62949                                
                
  22385781.35207 117638143.22407        44.900                    22385791.55107
  91666045.76949        34.700    22385791.09049  22385789.97709  87846622.51209
        48.100  
  25063195.43803 131708091.55003        33.500                    25063206.23805
 102629572.28045        16.900    25063206.57845  25063205.55106  98353325.90906
        40.900  
  21406592.89107 114350085.33807        44.500    21406592.75807  21406595.99607
  88938986.53806        39.900    21406597.96506                                
                
  20263460.72708 106485332.49108        47.600                                  
  82975523.45049        42.000    20263466.51649                                
                
  21366987.85205 114299017.04105        37.600    21366985.65605  21366990.11707
  88899197.51406        40.500    21366989.50406                                
                
  24073961.70305 126509502.03905        35.300                    24073973.74206
  98578857.02746        20.100    24073973.35246  24073973.61707  94471402.50507
        42.300  
  19457502.96109 103902001.91209        53.300    19457501.96109  19457505.73009
  80812681.77409        50.600    19457505.55509                                
                
  25236942.78903 132621058.75603        32.900                                  
 103341073.15445        15.600    25236950.96945                                
                
  22614089.82807 121012572.24307        44.700    22614089.00407  22614096.15606
  94120901.03006        40.000    22614095.30906                                
                
  20271786.87509 106529036.19509        49.300                    20271796.32409
  83009634.40849        44.100    20271796.85249  20271794.86309  79550887.45709
        54.300  
  21540963.53908 113198560.52108        47.800                    21540973.03108
  88206697.83549        39.600    21540972.89549  21540972.50809  84531421.26409
        50.900  
  21904362.14808 116762588.66908        46.700    21904361.33208  21904367.71106
  90815368.46305        36.700    21904369.08605                                
                
  23968757.00805 125956747.34905        37.600                                  
  98148073.85346        22.000    23968764.78946                                
                
  24196868.59405 127155411.07705        36.900                                  
  99082175.93145        19.900    24196875.42645                                
                
 19  6  7  4  3 35.0000000  0 17G 7R20G18G 8G27R16G11R19G 9R 9G16R21  .000000000
                                G 1G30R10G22G28
  20235769.85909 106339922.90309        51.700                    20235776.48409
  82862140.74849        43.900    20235776.49649                                
                
  19558551.69508 104588394.42308        47.600    19558551.46908  19558557.17609
  81346549.41309        49.000    19558556.76609                                
                
  20358396.44509 106984126.28609        50.000                                  
  83364266.55049        42.300    20358403.88749                                
                
  22387844.27308 117648980.53208        45.800                    22387853.92607
  91674490.41449        35.000    22387853.38749  22387852.17209  87854715.28309
        48.300  
  25065738.57004 131721454.95304        34.500                    25065749.42205
 102639985.29945        19.300    25065749.00845  25065748.52007  98363305.04607
        41.300  
  21409039.32807 114363153.50707        44.400    21409039.59407  21409043.21907
  88949150.65906        39.900    21409044.24606                                
                
  20263638.50009 106486265.79009        48.100                                  
  82976250.69949        41.700    20263644.23449                                
                
  21370222.32006 114316323.70406        38.200    21370220.75805  21370225.41007
  88912658.24607        41.400    21370224.96907                                
                
  24075981.24205 126520113.13605        37.500                    24075992.54706
  98587125.37646        21.800    24075992.68446  24075993.26207  94479326.36207
        43.200  
  19456192.53109 103895003.94909        52.800    19456191.71509  19456195.10209
  80807238.90909        50.500    19456195.10909                                
                
  25238778.56304                        34.100                                  
                        16.300    25238788.49645                                
                
  22611156.74207 120996875.91107        44.700    22611155.87907  22611162.84406
  94108692.78406        40.600    22611162.34406                                
                
  20270659.07009 106523109.36109        49.100                    20270668.70309
  83005016.10049        43.900    20270669.04349  20270667.06609  79546461.57009
        54.200  
  21538984.82008 113188160.98008        47.600                    21538993.98408
  88198594.28649        39.500    21538993.99649  21538993.53909  84523655.36409
        50.900  
  21900929.52308 116744292.74608        46.300    21900929.00807  21900936.68005
  90801138.29805        36.700    21900936.84405                                
                
  23966987.46105 125947445.26205        37.800                                  
  98140825.47246        21.800    23966994.64546                                
                
  24195085.58605 127146044.07505        36.700                                  
  99074876.93845        19.000    24195092.53945                                
                
 19  6  7  4  3 40.0000000  0 17G 7R20G18G 8G27R16G11R19G 9R 9G16R21  .000000000
                                G 1G30R10G22G28
  20235534.28909 106338682.44209        51.300                    20235540.44109
  82861174.16149        44.200    20235540.42249                                
                
  19558571.81308 104588500.43708        47.400    19558571.37108  19558577.39809
  81346631.86509        48.900    19558576.65209                                
                
  20358976.11709 106987171.57409        50.000                                  
  83366639.49749        41.400    20358983.39149                                
                
  22389906.45308 117659817.86308        45.400                    22389916.35208
  91682935.08949        35.500    22389915.83649  22389914.71109  87862808.09909
        48.900  
  25068281.92205 131734814.57105        36.300                    25068292.20306
 102650395.41945        18.300    25068291.02745  25068291.00407  98373281.34407
        42.000  
  21411487.75007 114376235.26607        44.100    21411488.27707  21411492.69106
  88959325.33606        39.700    21411493.36706                                
                
  20263818.43009 106487212.92809        48.500                                  
  82976988.72249        41.400    20263824.35249                                
                
  21373457.67206 114333635.62206        38.200    21373456.97705  21373461.32007
  88926123.05406        40.400    21373461.10506                                
                
  24077999.46105 126530722.53205        36.400                    24078011.12906
  98595392.43046        21.800    24078011.57846  24078011.64807  94487248.93907
        43.400  
  19454884.51609 103888021.12809        52.800    19454884.14109  19454886.75409
  80801807.82209        50.100    19454887.41809                                
                
  25240617.42203 132640370.85303        32.600                                  
 103356121.48245        15.600    25240626.31645                                
                
  22608224.60907 120981190.68207        44.500    22608224.33207  22608230.85907
  94096493.15806        40.400    22608231.19906                                
                
  20269534.24209 106517199.27709        49.400                    20269544.04709
  83000410.84349        44.000    20269544.27049  20269542.39509  79542048.19909
        54.100  
  21537008.46108 113177773.84808        47.800                    21537017.55108
  88190500.41549        39.200    21537017.41849  21537016.97709  84515898.74409
        51.000  
  21897496.95308 116725999.54408        46.100    21897497.16008  21897504.70305
  90786910.25205        36.400    21897504.68805                                
                
  23965216.96905 125938143.93005        37.900                                  
  98133577.68546        21.300    23965224.55946                                
                
  24193302.14805 127136673.58905        37.300                                  
  99067575.27645        19.600    24193309.86745                                
                
 19  6  7  4  3 45.0000000  0 17G 7R20G18G 8G27R16G11R19G 9R 9G16R21  .000000000
                                G 1G30R10G22G28
  20235301.17209 106337458.81009        51.200                    20235307.44109
  82860220.67949        43.800    20235307.52749                                
                
  19558594.64808 104588624.57908        47.500    19558594.65608  19558600.65209
  81346728.42309        49.500    19558599.87909                                
                
  20359558.78109 106990234.12509        49.900                                  
  83369025.90049        41.800    20359566.05149                                
                
  22391968.93808 117670655.30008        45.400                    22391978.44107
  91691379.83649        35.200    22391978.12949  22391976.78909  87870900.99809
        48.300  
  25070823.83605 131748170.24705        37.400                    25070834.05506
 102660802.45345        19.000    25070832.46145  25070832.22707  98383254.73707
        42.300  
  21413939.72707 114389330.57907        43.900    21413939.45307  21413943.71107
  88969510.56606        39.600    21413944.77306                                
                
  20264001.52309 106488173.88909        48.100                                  
  82977737.51749        42.100    20264007.20349                                
                
  21376696.60906 114350952.80506        38.500    21376694.70305  21376698.13306
  88939591.97307        41.400    21376698.52707                                
                
  24080018.94505 126541330.22205        37.500                    24080029.69506
  98603658.15946        20.900    24080029.97346  24080030.11707  94495170.26007
        43.500  
  19453579.85209 103881053.52209        53.200    19453579.19509  19453582.03109
  80796388.56909        50.100    19453582.67209                                
                
  25242456.09403 132650031.81403        33.500                                  
 103363649.47044        14.800    25242464.47344                                
                
  22605296.96908 120965516.65508        45.100    22605295.48807  22605302.05507
  94084302.26107        41.200    22605302.34807                                
                
  20268412.91409 106511306.02709        49.300                    20268422.32409
  82995818.70049        44.200    20268422.84849  20268420.85909  79537647.39209
        54.400  
  21535033.86708 113167399.16708        47.900                    21535043.23808
  88182416.24349        39.800    21535042.96549  21535042.81309  84508151.41909
        51.000  
  21894067.22708 116707709.19808        46.100    21894066.17208  21894072.41005
  90772684.43305        36.500    21894073.79705                                
                
  23963447.78905 125928843.47205        37.700                                  
  98126330.55846        22.000    23963454.73846                                
                
  24191519.49205 127127299.74405        36.900                                  
  99060270.98445        18.600    24191526.24645                                
                
 19  6  7  4  3 50.0000000  0 17G 7R20G18G 8G27R16G11R19G 9R 9G16R21  .000000000
                                G 1G30R10G22G28
  20235071.67209 106336252.08809        50.500                    20235077.78509
  82859280.36449        43.900    20235077.99649                                
                
  19558621.01608 104588767.14408        46.900    19558621.19508  19558627.34009
  81346839.30709        49.100    19558626.38309                                
                
  20360144.64109 106993313.99609        50.200                                  
  83371425.79049        41.700    20360152.29749                                
                
  22394030.74208 117681492.88208        45.100                    22394040.93407
  91699824.69649        34.600    22394040.44549  22394039.13709  87878993.98109
        48.200  
  25073363.71905 131761522.11405        37.600                    25073374.59806
 102671206.48645        19.000    25073373.69945  25073373.01607  98393225.32207
        41.700  
  21416394.31307 114402439.50307        44.200    21416393.61307  21416398.01607
  88979706.37306        39.200    21416398.66406                                
                
  20264186.84408 106489148.70308        47.900                                  
  82978497.11149        41.700    20264192.82449                                
                
  21379934.94506 114368275.10906        38.200    21379932.91405  21379937.57007
  88953064.86507        41.000    21379936.64507                                
                
  24082037.28905 126551936.19905        37.700                    24082047.92606
  98611922.58646        22.500    24082048.14546  24082048.46107  94503090.33107
        43.200  
  19452277.73409 103874101.19309        53.500    19452277.12509  19452279.74609
  80790981.19709        49.900    19452280.69509                                
                
  25244295.25003 132659696.03603        32.400                                  
 103371180.10345        15.600    25244303.18445                                
                
  22602369.01607 120949853.82407        44.600    22602367.98007  22602375.19907
  94072120.06606        40.900    22602375.59006                                
                
  20267294.42209 106505429.60309        49.300                    20267304.24609
  82991239.67249        43.800    20267304.52749  20267302.69909  79533259.16309
        54.200  
  21533061.88308 113157036.98908        47.800                    21533071.28908
  88174341.82549        39.000    21533071.23849  21533070.91809  84500413.42309
        51.000  
  21890635.76608 116689421.76508        46.100    21890635.19908  21890641.77705
  90758460.88105        36.200    21890643.25805                                
                
  23961677.52305 125919543.86205        37.300                                  
  98119084.12946        21.700    23961684.83646                                
                
  24189734.00005 127117922.51705        36.600                                  
  99052964.05745        19.300    24189741.76245                                
                
 19  6  7  4  3 55.0000000  0 17G 7R20G18G 8G27R16G11R19G 9R 9G16R21  .000000000
                                G 1G30R10G22G28
  20234845.25009 106335062.18109        50.400                    20234851.66809
  82858353.16049        43.900    20234851.44549                                
                
  19558651.45308 104588927.94408        47.200    19558651.31308  19558657.37109
  81346964.37309        49.100    19558656.55909                                
                
  20360734.00009 106996411.08309        49.900                                  
  83373839.10349        41.700    20360741.50449                                
                
  22396093.08608 117692330.59908        45.600                    22396103.38707
  91708269.65749        34.300    22396102.74249  22396101.51209  87887087.06409
        48.100  
  25075904.25805 131774870.16405        37.400                    25075914.33206
 102681607.57245        19.300    25075914.05145  25075913.18407  98403193.01107
        41.300  
  21418849.54707 114415561.95407        44.300    21418850.43007  21418854.10207
  88989912.71206        39.600    21418855.20306                                
                
  20264375.24208 106490137.28408        47.600                                  
  82979267.43049        41.300    20264381.09049                                
                
  21383173.36705 114385602.73405        37.500    21383171.88305  21383175.96507
  88966541.90906        40.400    21383175.93406                                
                
  24084054.89105 126562540.47005        37.500                    24084065.54706
  98620185.61646        22.500    24084066.15646  24084066.48407  94511009.09207
        43.600  
  19450978.48409 103867164.06809        53.400    19450978.10209  19450980.91409
  80785585.65609        51.000    19450981.56609                                
                
  25246134.79703 132669363.55803        33.300                                  
 103378713.12744        14.800    25246142.79744                                
                
  22599444.97708 120934202.18608        45.600    22599442.99607  22599450.28107
  94059946.59207        41.300    22599450.50807                                
                
  20266179.63309 106499570.00809        49.300                    20266189.28509
  82986673.75349        43.900    20266189.53549  20266187.66009  79528883.48609
        54.100  
  21531092.35908 113146687.24508        47.800                    21531101.97308
  88166277.08949        38.900    21531101.89149  21531101.40609  84492684.70909
        51.200  
  21887205.72708 116671137.06208        46.700    21887205.13708  21887212.43405
  90744239.44605        35.800    21887212.97305                                
                
  23959908.53105 125910245.05505        37.900                                  
  98111838.31846        22.200    23959915.25446                                
                
  24187949.35905 127108541.89905        36.400                                  
  99045654.49745        19.600    24187956.53145                                
                
 19  6  7  4  4  0.0000000  0 17G 7R20G18G 8G27R16G11R19G 9R 9G16R21  .000000000
                                G 1G30R10G22G28
  20234622.04709 106333889.05209        50.700                    20234628.28909
  82857439.03249        44.000    20234628.35549                                
                
  19558685.50808 104589106.98408        47.300    19558684.84408  19558691.07009
  81347103.62109        49.000    19558689.99609                                
                
  20361326.96909 106999525.39509        50.500                                  
  83376265.84349        41.600    20361334.20349                                
                
  22398155.64108 117703168.35308        45.200                    22398165.38307
  91716714.65549        34.700    22398165.18849  22398163.82009  87895180.18609
        48.000  
  25078443.85206 131788214.34506        38.100                    25078453.50805
 102692005.64645        17.400    25078453.09445  25078452.50407  98413157.80907
        41.700  
  21421308.81307 114428697.95507        44.100    21421309.34007  21421312.76606
  89000129.57806        39.400    21421314.42206                                
                
  20264565.75008 106491139.70708        46.900                                  
  82980048.53949        41.700    20264571.73449                                
                
  21386412.62506 114402935.49506        38.800    21386412.21105  21386416.11307
  88980022.92906        40.800    21386416.15206                                
                
  24086073.12506 126573142.94706        39.000                    24086083.30506
  98628447.31146        22.500    24086084.00046  24086084.05107  94518926.52607
        43.800  
  19449682.60909 103860242.24309        52.900    19449681.89809  19449685.01209
  80780202.01509        50.100    19449685.32809                                
                
  25247975.04703                        33.700                                  
                        15.600    25247983.27045                                
                
  22596521.53908 120918561.71108        45.000    22596520.29307  22596527.93807
  94047781.78506        40.600    22596527.77006                                
                
  20265067.73409 106493727.20609        49.500                    20265077.53909
  82982120.92049        43.700    20265077.63749  20265075.87109  79524520.35909
        54.400  
  21529125.43808 113136349.97908        47.800                    21529134.93008
  88158222.07149        39.500    21529134.67649  21529134.30509  84484965.32409
        51.100  
  21883776.21108 116652855.16408        46.800    21883775.62908  21883782.27705
  90730020.20205        36.900    21883783.25005                                
                
  23958138.36705 125900947.14605        37.300                                  
  98104593.19146        22.000    23958145.94146                                
                
  24186164.18005 127099157.89905        36.900                                  
  99038342.28545        19.900    24186170.60945                                
                
 19  6  7  4  4  5.0000000  0 17G 7R20G18G 8G27R16G11R19G 9R 9G16R21  .000000000
                                G 1G30R10G22G28
  20234401.81309 106332732.73009        50.400                    20234408.25809
  82856537.99549        43.800    20234408.32049                                
                
  19558722.36708 104589304.26608        47.900    19558721.83608  19558727.76209
  81347257.06909        49.000    19558726.95709                                
                
  20361922.92209 107002656.93809        49.900                                  
  83378706.00249        42.000    20361930.20349                                
                
  22400217.96108 117714006.19408        45.000                    22400228.06608
  91725159.72349        35.000    22400227.59449  22400226.28909  87903273.38009
        48.100  
  25080982.27306 131801554.60106        38.100                    25080991.41005
 102702400.66045        19.300    25080991.53945  25080991.56607  98423119.71407
        41.800  
  21423770.49207 114441847.40207        44.100    21423771.04707  21423774.78506
  89010356.91206        39.700    21423776.06306                                
                
  20264759.64808 106492155.87508        47.500                                  
  82980840.35549        41.700    20264765.04349                                
                
  21389654.24206 114420273.43306        38.000    21389653.48805  21389658.07807
  88993507.98407        41.000    21389657.30107                                
                
  24088090.39806 126583743.65206        39.500                    24088099.84805
  98636707.58246        22.600    24088100.96546  24088101.28107  94526842.65107
        44.000  
  19448389.11709 103853335.49709        52.400    19448388.51609  19448391.69509
  80774830.09309        50.200    19448391.99209                                
                
  25249815.32804 132688708.29704        34.800                                  
 103393786.93145        16.300    25249824.50845                                
                
  22593601.06308 120902932.40908        45.700    22593600.27007  22593607.73807
  94035625.67007        41.400    22593607.16407                                
                
  20263958.89809 106487901.20309        49.300                    20263968.73409
  82977581.17649        44.200    20263969.10549  20263967.22309  79520169.77509
        54.300  
  21527160.94508 113126025.12408        47.600                    21527170.24608
  88150176.73049        39.300    21527169.99249  21527169.55909  84477255.20509
        51.000  
  21880346.20308 116634576.14608        46.200    21880346.49607  21880353.71905
  90715803.17705        35.900    21880354.18805                                
                
  23956369.18006 125891650.02906        38.000                                  
  98097348.69346        22.300    23956376.80146                                
                
  24184376.89105 127089770.41105        36.900                                  
  99031027.35145        19.000    24184384.39145                                
                
 19  6  7  4  4 10.0000000  0 17G 7R20G18G 8G27R16G11R19G 9R 9G16R21  .000000000
                                G 1G30R10G22G28
  20234185.07809 106331593.23509        50.700                    20234191.22309
  82855650.07349        43.800    20234191.43449                                
                
  19558762.63308 104589519.72808        47.500    19558762.14808  19558767.27309
  81347424.64709        49.200    19558767.11309                                
                
  20362521.87509 107005805.73409        50.200                                  
  83381159.61149        41.700    20362529.21949                                
                
  22402280.14107 117724844.06307        44.800                    22402290.15207
  91733604.80249        34.500    22402289.87949  22402288.78109  87911366.58509
        48.200  
  25083520.35205 131814891.02005        37.400                    25083529.79305
 102712792.67445        19.900    25083529.30545  25083529.95307  98433078.73207
        42.100  
  21426235.13307 114455010.44807        43.500    21426234.93407  21426239.43406
  89020594.81306        39.500    21426240.04306                                
                
  20264955.17208 106493185.88308        46.800                                  
  82981642.95349        41.700    20264961.24649                                
                
  21392896.21906 114437616.45606        38.000    21392895.61705  21392898.44107
  89006996.98706        40.700    21392899.34406                                
                
  24090106.49206 126594342.56906        38.900                    24090117.20705
  98644966.47846        23.300    24090117.44146  24090118.39107  94534757.43207
        43.800  
  19447099.03109 103846444.10209        52.900    19447097.90609  19447100.67609
  80769470.11409        50.300    19447101.40609                                
                
  25251656.78903 132698385.51003        33.300                                  
 103401327.61945        16.300    25251665.72745                                
                
  22590682.55508 120887314.37008        45.100    22590681.50407  22590688.20706
  94023478.31606        40.600    22590688.64106                                
                
  20262853.74209 106482092.03709        49.500                    20262863.33209
  82973054.55749        43.900    20262863.60549  20262861.77309  79515831.76709
        54.300  
  21525198.47708 113115712.76408        47.700                    21525207.73808
  88142141.12449        38.900    21525207.66049  21525207.27709  84469554.41309
        51.300  
  21876918.35208 116616299.86008        45.500    21876917.70308  21876926.82805
  90701588.30105        37.400    21876925.73805                                
                
  23954600.43805 125882353.77305        37.900                                  
  98090104.83546        22.000    23954607.76246                                
                
  24182589.69505 127080379.46705        36.300                                  
  99023709.73745        18.600    24182597.24645                                
                
 19  6  7  4  4 15.0000000  0 17G 7R20G18G 8G27R16G11R19G 9R 9G16R21  .000000000
                                G 1G30R10G22G28
  20233971.35909 106330470.54109        51.700                    20233977.67609
  82854775.24549        44.100    20233977.89849                                
                
  19558805.95308 104589753.34208        47.500    19558805.54308  19558811.60509
  81347606.34409        49.300    19558810.88309                                
                
  20363124.25809 107008971.67309        50.400                                  
  83383626.57449        42.300    20363131.69949                                
                
  22404342.86708 117735682.02108        45.600                    22404352.87907
  91742049.96049        34.800    22404352.35949  22404351.21909  87919459.85809
        48.100  
  25086056.37505 131828223.55605        37.900                    25086066.83605
 102723181.64945        17.800    25086066.47745  25086066.93807  98443034.80807
        42.400  
  21428702.66407 114468186.97007        43.900    21428701.63307  21428706.30907
  89030843.20006        40.000    21428706.79306                                
                
  20265153.41408 106494229.62308        47.500                                  
  82982456.25449        41.800    20265159.72749                                
                
  21396140.13306 114454964.53106        38.200    21396138.73405  21396142.64507
  89020489.93306        40.900    21396142.37506                                
                
  24092124.08606 126604939.66106        39.400                    24092133.88306
  98653223.94946        21.800    24092134.43446  24092134.83607  94542670.83007
        44.400  
  19445810.89109 103839567.95609        52.800    19445810.30509  19445813.03509
  80764122.00909        50.100    19445813.71909                                
                
  25253499.83603 132708065.92703        33.100                                  
 103408870.72044        14.800    25253507.80144                                
                
  22587766.72708 120871707.47708        46.300    22587765.94108  22587772.03107
  94011339.63207        41.100    22587771.90607                                
                
  20261751.27309 106476299.67609        49.200                    20261761.06309
  82968541.03649        43.800    20261761.55549  20261759.52009  79511506.30309
        54.300  
  21523238.64108 113105412.86008        47.800                    21523247.74208
  88134115.22049        39.300    21523247.57849  21523247.18809  84461862.93209
        51.200  
  21873490.42208 116598026.40708        45.800    21873489.80107  21873496.56605
  90687375.61805        36.800    21873497.68405                                
                
  23952831.91405 125873058.43505        37.600                                  
  98082861.71846        22.600    23952838.79346                                
                
  24180802.10205 127070985.12905        36.300                                  
  99016389.46845        19.600    24180809.62545                                
                
 19  6  7  4  4 20.0000000  0 17G 7R20G18G 8G27R16G11R19G 9R 9G16R21  .000000000
                                G 1G30R10G22G28
  20233760.89809 106329364.64109        50.900                    20233767.18009
  82853913.49749        43.900    20233767.23449                                
                
  19558853.66408 104590005.16808        47.300    19558852.86308  19558858.60209
  81347802.20609        49.100    19558858.01609                                
                
  20363730.10209 107012154.86109        50.800                                  
  83386106.97649        42.000    20363737.62149                                
                
  22406404.95308 117746519.95108        45.300                    22406415.27707
  91750495.09849        34.700    22406414.80549  22406413.42209  87927553.10009
        48.100  
  25088592.92205 131841552.19105        37.400                    25088603.05905
 102733567.59945        19.600    25088602.66445  25088602.76607  98452987.96807
        42.200  
  21431171.78107 114481376.92407        44.000    21431170.72307  21431174.27706
  89041102.04606        40.300    21431175.92606                                
                
  20265355.25008 106495287.10908        47.100                                  
  82983280.26649        41.900    20265360.97349                                
                
  21399382.77305 114472317.71705        37.900    21399382.16805  21399386.66807
  89033986.83706        40.900    21399386.41406                                
                
  24094139.81306 126615534.91606        38.800                    24094150.23005
  98661480.01446        21.300    24094150.54746  24094151.05907  94550582.87807
        44.000  
  19444526.60909 103832707.13009        52.500    19444525.41009  19444528.28509
  80758785.80409        50.500    19444528.95709                                
                
  25255342.28103 132717749.65503        33.800                                  
 103416416.55445        15.600    25255350.54345                                
                
  22584851.43008 120856111.77408        45.700    22584850.49608  22584857.22707
  93999209.64406        40.600    22584857.52706                                
                
  20260652.07009 106470524.09709        49.300                    20260661.97709
  82964040.58149        44.100    20260662.39549  20260660.44509  79507193.37409
        54.300  
  21521280.88308 113095125.44408        47.900                    21521289.92208
  88126099.04649        39.800    21521289.91849  21521289.64109  84454180.76009
        51.100  
  21870063.03108 116579755.99608        46.000    21870062.19508  21870070.28106
  90673165.29905        36.400    21870070.25405                                
                
  23951063.04705 125863763.88505        37.700                                  
  98075619.21646        21.800    23951069.98046                                
                
  24179013.51605 127061587.31205        36.200                                  
  99009066.49045        18.600    24179021.48845                                
                
 19  6  7  4  4 25.0000000  0 17G 7R20G18G 8G27R16G11R19G 9R 9G16R21  .000000000
                                G 1G30R10G22G28
  20233553.73409 106328275.57909        50.700                    20233560.09009
  82853064.87249        43.900    20233560.15249                                
                
  19558903.33608 104590275.16908        47.600    19558903.22708  19558909.03909
  81348012.20909        49.000    19558908.44909                                
                
  20364339.18809 107015355.21609        50.100                                  
  83388600.75549        41.800    20364346.55949                                
                
  22408467.93008 117757357.90408        45.400                    22408477.56307
  91758940.24749        34.900    22408477.14849  22408476.00409  87935646.37309
        48.500  
  25091128.28905 131854876.90205        36.600                    25091138.49205
 102743950.45645        19.300    25091138.50445  25091137.91007  98462938.25407
        42.200  
  21433642.83607 114494580.42907        44.300    21433642.79707  21433645.94106
  89051371.41806        39.000    21433647.47306                                
                
  20265559.00008 106496358.33308        47.100                                  
  82984114.98649        41.700    20265564.77049                                
                
  21402628.46905 114489676.00405        37.400    21402627.66405  21402632.27707
  89047487.72407        41.200    21402631.05907                                
                
  24096155.78106 126626128.36406        38.400                    24096165.20705
  98669734.63246        20.600    24096166.21946  24096166.59407  94558493.55507
        44.000  
  19443243.94509 103825861.55809        52.500    19443243.43409  19443246.13709
  80753461.46909        50.600    19443246.93409                                
                
  25257186.79704 132727436.59604        34.800                                  
 103423964.81544        14.800    25257193.84044                                
                
  22581940.37508 120840527.27608        46.500    22581939.72308  22581944.59806
  93987088.36506        40.000    22581944.74206                                
                
  20259556.53109 106464765.37909        49.300                    20259566.31309
  82959553.27549        44.300    20259566.56349  20259564.62909  79502893.03909
        54.300  
  21519325.64808 113084850.52208        47.900                    21519334.78108
  88118092.61849        39.600    21519334.75849  21519334.39509  84446507.92909
        51.200  
  21866635.44508 116561488.62308        46.300    21866635.39508  21866641.70705
  90658957.33505        36.600    21866643.40605                                
                
  23949295.03105 125854470.31605        37.700                                  
  98068377.47046        22.800    23949301.36346                                
                
  24177225.87505 127052186.06805        36.100                                  
  99001740.85245        19.000    24177232.08645                                
                
 19  6  7  4  4 30.0000000  0 17G 7R20G18G 8G27R16G11R19G 9R 9G16R21  .000000002
                                G 1G30R10G22G28
  20233349.68009 106327203.38209        50.700                    20233356.21909
  82852229.39749        43.700    20233356.16049                                
                
  19558956.85908 104590563.34508        47.000    19558956.97308  19558963.11709
  81348236.34709        48.900    19558962.33609                                
                
  20364951.21909 107018572.77509        50.500                                  
  83391107.94249        41.500    20364958.89849                                
                
  22410529.85207 117768195.93507        44.600                    22410539.87907
  91767385.46149        35.000    22410539.65649  22410538.53509  87943739.69409
        48.600  
  25093663.30505 131868197.79605        37.100                    25093673.72704
 102754330.37545        18.300    25093673.56345  25093673.64107  98472885.67507
        42.000  
  21436116.52307 114507797.39007        44.500    21436117.01207  21436121.02006
  89061651.26205        37.900    21436121.85205                                
                
  20265765.70308 106497443.30708        47.300                                  
  82984960.42049        42.000    20265771.25849                                
                
  21405874.99205 114507039.36405        37.700    21405873.22305  21405877.54306
  89060992.55406        40.500    21405876.97706                                
                
  24098171.32806 126636719.98606        39.200                    24098180.71105
  98677987.85446        20.600    24098181.30546  24098182.37907  94566402.86407
        43.800  
  19441965.34409 103819031.34809        52.700    19441964.44509  19441967.51209
  80748149.08209        50.400    19441967.95309                                
                
  25259030.35903 132737126.87903        33.700                                  
 103431515.67744        14.800    25259037.74244                                
                
  22579030.04708 120824954.05608        46.400    22579028.73408  22579035.59807
  93974975.85506        40.300    22579034.77706                                
                
  20258464.00809 106459023.53709        49.500                    20258473.54709
  82955079.10849        44.600    20258473.91449  20258472.05909  79498605.29009
        54.500  
  21517372.78108 113074588.12008        47.700                    21517381.89508
  88110095.93649        40.200    21517381.93449  21517381.49209  84438844.44009
        51.400  
  21863209.17208 116543224.12208        46.500    21863209.03908  21863217.09005
  90644751.62505        36.600    21863217.18805                                
                
  23947526.15606 125845177.61406        38.100                                  
  98061136.41246        22.600    23947533.53946                                
                
  24175435.43805 127042781.48005        35.800                                  
  98994412.64645        19.000    24175442.38345                                
                
 19  6  7  4  4 35.0000000  0 17G 7R20G18G 8G27R16G11R19G 9R 9G16R21  .000000002
                                G 1G30R10G22G28
  20233148.85909 106326148.00609        50.500                    20233155.02309
  82851407.01749        43.900    20233155.33249                                
                
  19559014.93008 104590869.74708        47.200    19559014.51608  19559020.09809
  81348474.66109        49.200    19559019.58609                                
                
  20365566.64809 107021807.60609        49.700                                  
  83393628.59049        41.800    20365574.34049                                
                
  22412592.63307 117779033.92007        44.800                    22412602.18807
  91775830.63949        34.700    22412601.84449  22412600.75009  87951832.99009
        48.000  
  25096196.67205 131881514.73605        36.000                    25096207.15604
 102764707.21945        19.000    25096207.28145  25096208.05907  98482830.12007
        42.600  
  21438594.46107 114521027.81407        43.900    21438593.69907  21438597.06606
  89071941.57206        39.300    21438598.75406                                
                
  20265974.57808 106498542.04208        47.600                                  
  82985816.57149        42.000    20265980.41049                                
                
  21409121.86705 114524407.73405        37.600    21409119.87905  21409124.10506
  89074501.27906        40.600    21409123.88706                                
                
  24100186.69506 126647309.72706        38.800                    24100195.37905
  98686239.61446        20.900    24100196.19146  24100197.10207  94574310.81407
        43.800  
  19440688.92209 103812216.49409        52.800    19440688.39109  19440691.34409
  80742848.64309        50.400    19440691.73409                                
                
  25260874.76604 132746820.32204        34.100                                  
 103439068.96845        16.900    25260882.64845                                
                
  22576122.10908 120809392.05008        46.200    22576121.03107  22576126.44906
  93962872.08006        40.200    22576126.37506                                
                
  20257374.38309 106453298.48209        49.100                    20257384.21109
  82950618.02849        43.800    20257384.43849  20257382.56309  79494330.09609
        54.300  
  21515422.19508 113064338.23508        47.600                    21515431.59808
  88102109.00949        39.200    21515431.32049  21515430.90609  84431190.30209
        51.200  
  21859784.88308 116524962.52608        46.200    21859783.13707  21859791.47705
  90630548.16105        36.700    21859791.13305                                
                
  23945757.95305 125835885.84705        37.200                                  
  98053896.07046        22.500    23945765.13346                                
                
  24173645.62505 127033373.38305        36.200                                  
  98987081.64545        19.300    24173652.11345                                
                
 19  6  7  4  4 40.0000000  0 17G 7R20G18G 8G27R16G11R19G 9R 9G16R21  .000000000
                                G 1G30R10G22G28
  20232951.05509 106325109.43909        50.900                    20232957.55909
  82850597.74049        43.900    20232957.67249                                
                
  19559075.41408 104591194.24308        47.400    19559075.14108  19559081.07409
  81348727.04309        48.600    19559080.34009                                
                
  20366185.99209 107025059.57209        50.200                                  
  83396162.58249        41.800    20366193.25849                                
                
  22414654.67208 117789871.94408        45.100                    22414664.76607
  91784275.84449        35.000    22414664.44149  22414663.08209  87959926.32709
        48.200  
  25098730.43005 131894827.80305        35.100                    25098741.87904
 102775081.01445        19.900    25098740.88345  25098740.73007  98492771.68607
        41.300  
  21441072.60907 114534271.66007        44.100    21441073.04307  21441076.12506
  89082242.33406        39.300    21441078.03506                                
                
  20266186.20308 106499654.49308        47.500                                  
  82986683.41449        42.000    20266191.98849                                
                
  21412368.35905 114541781.07605        37.500    21412367.90205  21412372.06606
  89088013.86906        40.700    21412371.62106                                
                
  24102200.43805 126657897.63505        37.700                    24102210.20705
  98694489.93845        19.600    24102210.85945  24102211.69507  94582217.35307
        43.000  
  19439415.38309 103805417.01909        53.200    19439414.99209  19439418.14109
  80737560.15209        50.400    19439418.35909                                
                
  25262719.44504 132756517.08004        34.000                                  
 103446624.84745        15.600    25262728.27045                                
                
  22573215.60208 120793841.25108        46.000    22573214.07407  22573219.43006
  93950777.02206        39.700    22573220.20306                                
                
  20256287.80509 106447590.26609        49.300                    20256297.92209
  82946170.06949        44.000    20256298.18449  20256296.37909  79490067.46309
        54.300  
  21513473.84408 113054100.86708        47.600                    21513483.33608
  88094131.83749        40.200    21513483.25849  21513482.84009  84423545.50809
        51.200  
  21856359.00808 116506703.82308        46.700    21856357.89808  21856365.51605
  90616346.94405        36.800    21856365.91005                                
                
  23943989.61705 125826594.95805        37.100                                  
  98046656.41546        21.100    23943996.78946                                
                
  24171854.24205 127023961.91305        36.700                                  
  98979748.02246        20.100    24171861.10946                                
                
 19  6  7  4  4 45.0000000  0 17G 7R20G18G 8G27R16G11R19G 9R 9G16R21  .000000000
                                G 1G30R10G22G28
  20232756.73409 106324087.74109        50.500                    20232763.21109
  82849801.60349        43.700    20232763.15649                                
                
  19559139.68008 104591536.95708        47.200    19559139.18808  19559144.93009
  81348993.60309        48.900    19559144.52709                                
                
  20366807.95309 107028328.76409        50.800                                  
  83398710.00949        42.000    20366815.34849                                
                
  22416717.01607 117800710.06407        44.600                    22416727.26607
  91792721.12749        34.900    22416726.90249  22416725.76209  87968019.72109
        48.400  
  25101264.28105 131908137.03005        35.300                    25101274.35205
 102785451.80445        19.900    25101273.73445  25101273.38707  98502710.37107
        41.600  
  21443554.96907 114547528.98707        43.700    21443554.78507  21443558.06606
  89092553.57206        38.800    21443559.88306                                
                
  20266400.50008 106500780.72808        46.600                                  
  82987560.99649        41.900    20266406.45749                                
                
  21415617.45305 114559159.58305        37.800    21415616.30905  21415619.87107
  89101530.48006        40.700    21415620.26606                                
                
  24104215.40605 126668483.65605        37.700                    24104224.68803
  98702738.78745        19.600    24104224.79345  24104226.16407  94590122.54007
        42.500  
  19438144.97709 103798632.90409        52.900    19438144.54309  19438147.62909
  80732283.61609        50.300    19438147.98009                                
                
  25264565.97703 132766217.17003        32.200                                  
 103454183.38145        15.600    25264574.52345                                
                
  22570311.71108 120778301.73108        46.200    22570310.91808  22570315.79306
  93938690.72206        38.700    22570315.74206                                
                
  20255205.18009 106441898.95309        49.100                    20255214.84409
  82941735.28449        44.000    20255215.20349  20255213.35209  79485817.46509
        54.100  
  21511528.35208 113043876.06108        47.800                    21511537.53908
  88086164.44849        39.800    21511537.59449  21511537.22709  84415910.09409
        51.300  
  21852933.89808 116488448.07908        46.900    21852933.30108  21852939.64105
  90602148.04005        37.200    21852941.19505                                
                
  23942222.14805 125817305.08405        37.900                                  
  98039417.56146        22.200    23942228.90246                                
                
  24170062.96105 127014547.06805        36.200                                  
  98972411.76445        18.300    24170069.52345                                
                
 19  6  7  4  4 50.0000000  0 17G 7R20G18G 8G27R16G11R19G 9R 9G16R21  .000000000
                                G 1G30R10G22G28
  20232565.69509 106323082.83209        50.800                    20232572.19109
  82849018.55449        44.400    20232572.01249                                
                
  19559207.00008 104591897.73608        47.400    19559206.62908  19559212.64509
  81349274.20009        49.200    19559211.92209                                
                
  20367433.52309 107031615.12709        49.900                                  
  83401270.80249        41.800    20367440.74649                                
                
  22418779.43007 117811548.15007        44.700                    22418789.05507
  91801166.37549        34.700    22418789.23849  22418788.06309  87976113.08709
        48.500  
  25103795.93005 131921442.33805        35.800                    25103806.13705
 102795819.61246        20.100    25103805.86346  25103805.69107  98512646.11107
        42.000  
  21446039.32807 114560799.78807        43.900    21446039.18007  21446044.03906
  89102875.28406        39.300    21446044.19506                                
                
  20266617.47708 106501920.64608        46.500                                  
  82988449.24549        41.600    20266623.35949                                
                
  21418867.75005 114576542.92205        37.200    21418866.00005  21418870.31307
  89115050.84106        40.700    21418869.93806                                
                
  24106228.89805 126679067.82305        37.000                    24106238.05503
  98710986.22645        18.600    24106238.53945  24106240.54707  94598026.26807
        43.400  
  19436877.12509 103791864.11109        52.500    19436876.80909  19436879.67609
  80727018.99509        50.500    19436880.33209                                
                
  25266410.70303 132775920.43503        33.200                                  
 103461744.29545        15.600    25266420.96945                                
                
  22567409.43008 120762773.48608        45.500    22567408.40207  22567414.06606
  93926613.20006        39.100    22567413.88706                                
                
  20254125.02309 106436224.46209        49.100                    20254135.09009
  82937313.59649        43.800    20254135.32449  20254133.42609  79481580.02209
        54.400  
  21509584.80508 113033663.77708        47.800                    21509594.36708
  88078206.82749        40.200    21509594.32449  21509593.89109  84408284.04509
        51.200  
  21849510.25008 116470195.33008        46.700    21849509.27308  21849517.04705
  90587951.45405        36.500    21849516.81305                                
                
  23940454.73406 125808016.12606        38.100                                  
  98032179.40946        22.000    23940461.28946                                
                
  24168270.38305 127005128.69505        36.100                                  
  98965072.79246        21.300    24168277.44946                                
                
 19  6  7  4  4 55.0000000  0 17G 7R20G18G 8G27R16G11R19G 9R 9G16R21  .000000000
                                G 1G30R10G22G28
  20232377.61709 106322094.79809        50.900                    20232383.87109
  82848248.65549        44.500    20232383.91049                                
                
  19559277.82008 104592276.71008        47.200    19559277.45708  19559283.44509
  81349568.96609        49.600    19559282.80909                                
                
  20368061.90609 107034918.66109        49.800                                  
  83403844.98849        41.800    20368069.46549                                
                
  22420842.21907 117822386.24207        44.600                    22420852.14507
  91809611.64449        34.400    22420851.81649  22420850.47309  87984206.45409
        48.400  
  25106325.93004 131934743.75904        34.500                    25106337.16405
 102806184.34645        19.900    25106336.89545  25106337.02707  98522578.99407
        41.600  
  21448527.21107 114574084.06907        44.400    21448525.94507  21448529.03506
  89113207.48606        39.400    21448531.11306                                
                
  20266836.86708 106503074.28708        47.100                                  
  82989348.18449        41.700    20266842.83649                                
                
  21422117.50805 114593931.31005        37.700    21422116.39505  21422120.76607
  89128575.13906        40.400    21422120.52006                                
                
  24108242.77305 126689650.05905        37.200                    24108251.65203
  98719232.10445        17.400    24108252.00045  24108254.34807  94605928.58907
        42.800  
  19435612.93009 103785110.77909        52.700    19435612.24209  19435614.66409
  80721766.40109        50.900    19435615.64509                                
                
  25268259.00003 132785627.05703        33.800                                  
 103469307.93945        15.600    25268268.36745                                
                
  22564510.40608 120747256.47508        45.900    22564508.60207  22564513.38706
  93914544.42106        39.100    22564514.03906                                
                
  20253048.51609 106430566.88109        49.200                    20253058.45309
  82932905.09549        43.900    20253058.71549  20253056.86309  79477355.20409
        54.400  
  21507644.03108 113023464.08108        47.800                    21507653.38308
  88070259.00949        39.600    21507653.40649  21507652.94109  84400667.39409
        51.400  
  21846086.56308 116451945.73808        46.600    21846085.70308  21846092.45705
  90573757.32805        36.900    21846093.35905                                
                
  23938686.85206 125798728.17906        38.600                                  
  98024942.03946        22.900    23938693.95346                                
                
  24166477.85905 126995707.00305        36.600                                  
  98957731.24045        19.600    24166484.19545                                
                
 19  6  7  4  5  0.0000000  0 17G 7R20G18G 8G27R16G11R19G 9R 9G16R21  .000000000
                                G 1G30R10G22G28
  20232192.75009 106321123.63709        50.600                    20232199.03109
  82847491.89949        43.800    20232199.19949                                
                
  19559352.22708 104592673.73108        47.200    19559351.69908  19559357.64109
  81349877.75709        48.900    19559356.99209                                
                
  20368693.91409 107038239.41209        49.800                                  
  83406432.58249        41.700    20368701.25449                                
                
  22422904.32807 117833224.32507        44.500                    22422914.66807
  91818056.90249        34.700    22422914.18049  22422912.80909  87992299.82409
        48.700  
  25108857.15605 131948041.29605        36.400                    25108868.54705
 102816546.00146        20.400    25108866.91446  25108867.46507  98532508.97007
        42.600  
  21451015.89107 114587381.88607        43.900    21451015.07007  21451019.16406
  89123550.21506        39.400    21451020.63306                                
                
  20267058.83608 106504241.69408        47.600                                  
  82990257.85449        41.600    20267064.95749                                
                
  21425368.62506 114611324.63606        38.400    21425367.81605  21425372.79707
  89142103.27306        39.900    21425372.25006                                
                
  24110256.32805 126700230.44005        37.100                    24110265.37903
  98727476.55045        18.600    24110265.07445  24110267.43807  94613829.50107
        43.000  
  19434350.95309 103778372.86609        53.200    19434350.53109  19434353.10509
  80716525.79509        51.000    19434353.92609                                
                
  25270106.74204 132795336.91904        34.300                                  
 103476874.06045        15.600    25270116.36345                                
                
  22561611.49208 120731750.84808        45.500    22561610.77307  22561617.15206
  93902484.48606        39.300    22561616.07806                                
                
  20251975.03109 106424926.22709        49.600                    20251985.06309
  82928509.79049        43.900    20251985.33649  20251983.43009  79473143.02809
        54.400  
  21505705.46909 113013277.03409        48.000                    21505715.07808
  88062321.05049        39.900    21505714.75049  21505714.41809  84393060.16809
        51.300  
  21842662.91408 116433699.30608        47.000    21842662.61308  21842670.47305
  90559565.66705        37.100    21842670.19905                                
                
  23936919.92206 125789441.24506        38.800                                  
  98017705.49446        22.300    23936927.21946                                
                
  24164684.56305 126986281.93505        36.600                                  
  98950387.00945        17.800    24164690.73045                                
                
 19  6  7  4  5  5.0000000  0 17G 7R20G18G 8G27R16G11R19G 9R 9G16R21  .000000000
                                G 1G30R10G22G28
  20232011.22709 106320169.32009        50.700                    20232017.52009
  82846748.27749        43.900    20232017.53549                                
                
  19559430.43808 104593088.95308        47.200    19559429.55908  19559435.65209
  81350200.70709        48.800    19559434.69909                                
                
  20369328.92209 107041577.35009        49.500                                  
  83409033.56649        41.900    20369336.41049                                
                
  22424966.69507 117844062.41307        44.700                    22424977.27707
  91826502.14549        34.200    22424976.43849  22424975.44109  88000393.18709
        48.200  
  25111386.18005 131961334.91305        36.300                    25111397.53506
 102826904.65746        21.700    25111397.00846  25111396.68406  98542436.02906
        40.300  
  21453507.69507 114600693.08507        43.900    21453507.23007  21453510.56606
  89133903.34506        39.100    21453512.60206                                
                
  20267284.05508 106505422.83108        46.800                                  
  82991178.21349        41.800    20267289.73449                                
                
  21428621.73406 114628722.94706        38.300    21428620.17605  21428624.75407
  89155635.28707        41.000    21428624.52307                                
                
  24112269.16405 126710808.88005        35.200                    24112279.30104
  98735719.53245        17.800    24112277.96945  24112279.96907  94621729.00907
        42.100  
  19433091.91409 103771650.37109        52.700    19433091.67609  19433094.32009
  80711297.19009        50.700    19433094.98809                                
                
  25271954.68803                        32.800                                  
                        16.300    25271964.82045                                
                
  22558717.02308 120716256.56008        46.200    22558716.06307  22558721.21906
  93890433.36306        38.500    22558720.53506                                
                
  20250905.29709 106419302.43109        49.500                    20250914.82409
  82924127.61149        43.900    20250915.17249  20250913.27309  79468943.44909
        54.400  
  21503769.36709 113003102.56409        48.000                    21503778.81308
  88054392.89349        40.000    21503778.57849  21503778.32409  84385462.35509
        51.500  
  21839241.38308 116415455.89608        47.000    21839239.84808  21839248.88305
  90545376.36005        36.400    21839247.91405                                
                
  23935153.44506 125780155.32506        39.300                                  
  98010469.70146        24.000    23935160.08246                                
                
  24162889.47705 126976853.39705        36.800                                  
  98943040.10745        18.300    24162896.85245                                
                
 19  6  7  4  5 10.0000000  0 17G 7R20G18G 8G27R16G11R19G 9R 9G16R21  .000000000
                                G 1G30R10G22G28
  20231833.18009 106319231.83009        50.700                    20231839.16009
  82846017.76049        44.000    20231839.22749                                
                
  19559510.97708 104593522.18908        47.000    19559510.56308  19559516.43409
  81350537.66809        48.600    19559515.70309                                
                
  20369967.69509 107044932.52309        49.200                                  
  83411647.98549        42.100    20369974.96149                                
                
  22427028.60207 117854900.48207        44.700                    22427039.47307
  91834947.39349        34.000    22427039.12549  22427037.51209  88008486.54009
        48.200  
  25113915.42205 131974624.69605        36.900                    25113926.75006
 102837260.34146        21.100    25113926.14546  25113926.19907  98552360.17707
        42.300  
  21456002.30507 114614017.69307        43.900    21456001.46507  21456005.16806
  89144266.91506        39.900    21456006.82406                                
                
  20267511.40608 106506617.54608        47.000                                  
  82992109.15949        42.300    20267516.96949                                
                
  21431875.11705 114646126.19605        37.300    21431874.18405  21431878.34407
  89169171.13406        40.500    21431877.96506                                
                
  24114281.07004 126721385.44704        34.500                    24114292.00804
  98743961.05045        16.900    24114290.76645  24114292.75007  94629627.06507
        41.600  
  19431836.12509 103764943.32809        53.000    19431835.63709  19431837.94509
  80706080.59909        50.900    19431838.98409                                
                
  25273804.25803 132814766.54603        33.500                                  
 103492013.91145        16.300    25273814.13745                                
                
  22555822.99208 120700773.49908        45.100    22555821.99607  22555827.32006
  93878390.98406        38.200    22555826.89506                                
                
  20249838.22709 106413695.55109        49.200                    20249847.66809
  82919758.61149        44.100    20249848.29349  20249846.27709  79464756.48509
        54.300  
  21501835.44508 112992940.67208        47.900                    21501845.19908
  88046474.53349        40.100    21501844.92649  21501844.60909  84377873.93409
        51.400  
  21835819.05508 116397215.49808        46.400    21835818.26608  21835826.07005
  90531189.38605        36.700    21835825.93805                                
                
  23933385.92206 125770870.41706        38.700                                  
  98003234.72946        22.600    23933393.18446                                
                
  24161094.29705 126967421.44505        36.200                                  
  98935690.52145        19.000    24161102.28145                                
                
 19  6  7  4  5 15.0000000  0 17G 7R20G18G 8G27R16G11R19G 9R 9G16R21  .000000000
                                G 1G30R10G22G28
  20231657.61709 106318311.29509        50.500                    20231663.78109
  82845300.45249        43.600    20231664.05549                                
                
  19559595.25009 104593973.65609        48.000    19559595.02008  19559600.30509
  81350888.80809        49.700    19559600.12509                                
                
  20370609.49209 107048304.83809        49.800                                  
  83414275.76349        42.000    20370616.58249                                
                
  22429091.39107 117865738.60307        44.500                    22429101.90207
  91843392.68449        34.800    22429101.53549  22429100.31309  88016579.94009
        48.100  
  25116444.07804 131987910.62404        34.900                    25116454.21106
 102847612.98446        21.300    25116454.12146  25116454.29707  98562281.47707
        41.200  
  21458499.01607 114627355.78507        44.000    21458498.38707  21458502.30506
  89154640.97406        39.300    21458504.05106                                
                
  20267741.27308 106507826.04908        47.600                                  
  82993050.84949        42.000    20267747.03949                                
                
  21435129.24205 114663534.36005        37.800    21435128.47705  21435132.15606
  89182710.81006        40.900    21435132.24206                                
                
  24116294.53904 126731960.10404        34.900                    24116303.73404
  98752201.00245        17.800    24116303.49645  24116305.03907  94637523.72807
        41.800  
  19430583.62509 103758251.81509        53.100    19430582.48009  19430585.44509
  80700876.08409        50.500    19430585.74209                                
                
  25275654.35904 132824486.31804        34.300                                  
 103499587.79445        15.600    25275663.50045                                
                
  22552932.25807 120685301.84407        44.900    22552931.07807  22552935.04306
  93866357.45506        38.600    22552936.38306                                
                
  20248774.50809 106408105.61909        49.200                    20248784.12909
  82915402.82049        43.700    20248784.45349  20248782.62109  79460582.19209
        54.300  
  21499904.27308 112982791.46108        47.900                    21499913.50008
  88038566.05349        40.400    21499913.39849  21499913.19909  84370294.97109
        51.300  
  21832398.50008 116378978.40808        47.100    21832397.04308  21832404.88305
  90517004.98305        37.100    21832404.66805                                
                
  23931620.10206 125761586.60906        39.300                                  
  97996000.57046        23.000    23931626.42246                                
                
  24159299.50005 126957986.07105        36.700                                  
  98928338.29845        19.600    24159306.90245                                
                
 19  6  7  4  5 20.0000000  0 17G 7R20G18G 8G27R16G11R19G 9R 9G16R21  .000000000
                                G 1G30R10G22G28
  20231485.57809 106317407.49209        50.500                    20231491.91009
  82844596.18649        43.900    20231492.00049                                
                
  19559682.89108 104594443.16508        47.900    19559682.83208  19559688.49209
  81351253.97709        48.900    19559687.90609                                
                
  20371254.75009 107051694.28209        49.100                                  
  83416916.88649        41.800    20371261.64149                                
                
  22431154.26608 117876576.65908        45.000                    22431164.18007
  91851837.91749        34.700    22431163.86349  22431162.65209  88024673.30109
        48.300  
  25118970.76604 132001192.51104        34.500                    25118982.44906
 102857962.53046        20.600    25118981.66446  25118981.81307  98572199.76807
        41.800  
  21460998.86707 114640707.25507        43.900    21460997.80507  21461002.70706
  89165025.43306        39.400    21461003.28906                                
                
  20267974.18008 106509048.26008        47.400                                  
  82994003.21749        42.000    20267979.64149                                
                
  21438384.97706 114680947.32706        38.200    21438383.52305  21438388.41406
  89196254.23206        40.500    21438387.52006                                
                
  24118304.71104 126742532.74004        34.100                    24118316.69105
  98760439.40145        17.400    24118315.70745  24118316.79707  94645418.87307
        41.600  
  19429332.67209 103751575.64109        53.000    19429332.17609  19429335.92209
  80695683.49609        50.600    19429335.54309                                
                
  25277503.89803 132834209.31303        33.300                                  
 103507164.12544        14.800    25277513.65244                                
                
  22550043.00008 120669841.40108        45.400    22550040.96107  22550047.85506
  93854332.67806        39.100    22550047.75406                                
                
  20247713.76609 106402532.51009        49.200                    20247723.61709
  82911060.13949        43.900    20247723.89549  20247722.14809  79456420.45309
        54.400  
  21497975.38308 112972654.77608        47.900                    21497984.53508
  88030667.33449        39.700    21497984.44149  21497984.24209  84362725.36609
        51.300  
  21828976.93808 116360744.30808        47.200    21828976.39108  21828984.58206
  90502822.90805        36.500    21828983.90605                                
                
  23929853.25006 125752303.73706        39.500                                  
  97988767.16146        24.100    23929859.93846                                
                
  24157503.30505 126948547.27305        36.800                                  
  98920983.38445        18.600    24157510.67645                                
                
 19  6  7  4  5 25.0000000  0 17G 7R20G18G 8G27R16G11R19G 9R 9G16R21  .000000000
                                G 1G30R10G22G28
  20231316.85209 106316520.65709        50.500                    20231323.19109
  82843905.14249        43.700    20231323.14849                                
                
  19559773.75008 104594930.88708        47.800    19559773.81308  19559779.92209
  81351633.31609        49.200    19559779.22309                                
                
  20371902.68009 107055100.97409        49.500                                  
  83419571.45049        41.600    20371909.90249                                
                
  22433216.10207 117887414.77407        44.600                    22433226.30507
  91860283.18849        35.100    22433226.43449  22433225.21509  88032766.69209
        48.500  
  25121499.00005 132014470.63705        37.300                    25121508.85206
 102868309.06246        21.100    25121508.94946  25121508.61707  98582115.23907
        41.400  
  21463501.40607 114654072.18607        43.800    21463499.91007  21463504.44506
  89175420.36106        38.700    21463505.22306                                
                
  20268208.93008 106510284.28708        46.600                                  
  82994966.35049        42.100    20268214.81649                                
                
  21441641.19505 114698365.21105        37.600    21441639.45305  21441643.18807
  89209801.47107        41.200    21441643.56607                                
                
  24120317.68004 126753103.47804        34.000                    24120328.40205
  98768676.31545        17.400    24120327.42245  24120328.43407  94653312.57807
        41.800  
  19428085.31309 103744915.12409        52.900    19428084.75409  19428087.89809
  80690503.08909        50.500    19428088.48409                                
                
  25279354.17203 132843935.70603        33.400                                  
 103514743.21745        17.400    25279364.71145                                
                
  22547155.40608 120654392.41008        45.700    22547154.26607  22547159.86706
  93842316.80706        40.200    22547160.68806                                
                
  20246656.44509 106396976.40509        49.300                    20246666.37509
  82906730.70949        44.300    20246666.60549  20246664.81309  79452271.42009
        54.500  
  21496049.11708 112962530.81408        47.900                    21496058.05108
  88022778.53249        39.900    21496058.23449  21496057.61709  84355165.27809
        51.300  
  21825557.71108 116342513.29508        46.300    21825556.31308  21825563.32405
  90488643.23105        36.900    21825563.93805                                
                
  23928086.31306 125743021.96906        39.300                                  
  97981534.61846        22.500    23928093.39846                                
                
  24155706.83605 126939105.10605        36.700                                  
  98913625.82945        19.900    24155714.00045                                
                
 19  6  7  4  5 30.0000000  0 17G 7R20G18G 8G27R16G11R19G 9R 9G16R21  .000000000
                                G 1G30R10G22G28
  20231151.39809 106315650.70509        50.500                    20231157.64109
  82843227.25249        43.800    20231157.72349                                
                
  19559868.89808 104595436.59808        47.000    19559868.58208  19559874.17609
  81352026.65109        49.300    19559873.69909                                
                
  20372554.20309 107058524.84809        50.200                                  
  83422239.40549        42.100    20372561.44949                                
                
  22435278.71107 117898252.83307        44.100                    22435289.24607
  91868728.42049        34.000    22435288.83249  22435287.52309  88040860.03809
        48.400  
  25124023.64804 132027744.93104        34.900                    25124034.46105
 102878652.66246        21.700    25124034.76246  25124034.55507  98592027.80607
        41.700  
  21466004.48407 114667450.58707        43.800    21466004.45307  21466007.48806
  89185825.76806        38.900    21466009.52706                                
                
  20268446.53908 106511534.07408        47.200                                  
  82995940.20749        41.700    20268452.66049                                
                
  21444897.49205 114715787.96605        37.700    21444896.54705  21444901.47307
  89223352.48906        40.400    21444900.65606                                
                
  24122328.95305 126763672.27005        35.700                    24122339.14805
  98776911.73845        18.300    24122338.91845  24122339.68407  94661204.85507
        42.000  
  19426841.25809 103738270.10809        52.600    19426840.46909  19426843.44509
  80685334.73609        50.100    19426843.98009                                
                
  25281206.08603                        33.500                                  
                        14.800    25281215.69544                                
                
  22544271.10208 120638954.73708        46.200    22544269.68407  22544275.39106
  93830309.74606        40.200    22544276.14106                                
                
  20245602.38309 106391437.21309        49.300                    20245612.25409
  82902414.45649        44.100    20245612.51649  20245610.77009  79448135.02009
        54.400  
  21494124.75009 112952419.53909        48.000                    21494133.66408
  88014899.61149        39.800    21494134.02049  21494133.57409  84347614.62809
        51.300  
  21822137.91408 116324285.49908        46.000    21822136.54308  21822144.39506
  90474466.06505        37.400    21822144.64505                                
                
  23926320.78906 125733741.28306        39.400                                  
  97974302.91946        23.000    23926327.27346                                
                
  24153909.28105 126929659.58605        36.900                                  
  98906265.69145        19.300    24153916.24245                                
                
 19  6  7  4  5 35.0000000  0 17G 7R20G18G 8G27R16G11R19G 9R 9G16R21  .000000000
                                G 1G30R10G22G28
  20230989.21109 106314797.59509        50.500                    20230995.36309
  82842562.48749        43.900    20230995.46149                                
                
  19559966.36708 104595960.43508        47.500    19559966.53508  19559972.56309
  81352434.07409        48.600    19559971.73409                                
                
  20373209.20309 107061965.84909        50.200                                  
  83424920.70049        41.800    20373216.31349                                
                
  22437341.38308 117909090.83808        45.000                    22437351.37907
  91877173.61749        34.600    22437351.10549  22437349.94509  88048953.33909
        48.300  
  25126548.96905 132041015.18505        35.000                    25126559.63705
 102888993.05746        20.100    25126560.16846  25126559.65606  98601937.41006
        40.000  
  21468511.75807 114680842.40907        43.900    21468511.53507  21468515.02006
  89196241.61206        38.600    21468516.52706                                
                
  20268687.70308 106512797.52508        47.300                                  
  82996924.71649        42.200    20268693.09849                                
                
  21448155.39805 114733215.52205        37.900    21448154.00405  21448159.05907
  89236907.24906        40.900    21448158.52006                                
                
  24124339.10905 126774238.99205        35.300                    24124349.70705
  98785145.57845        18.600    24124350.06345  24124350.26207  94669095.58607
        41.800  
  19425599.79709 103731640.49109        53.400    19425598.86309  19425601.62509
  80680178.37309        50.400    19425602.43409                                
                
  25283059.34403                        33.700                                  
                        16.300    25283067.84845                                
                
  22541388.05508 120623528.43308        46.500    22541386.94108  22541393.82807
  93818311.51206        40.400    22541393.53906                                
                
  20244551.61709 106385914.93609        49.300                    20244561.45309
  82898111.38749        44.100    20244561.95749  20244559.94909  79444011.23609
        54.500  
  21492203.03909 112942320.87609        48.000                    21492212.35908
  88007030.52249        39.900    21492212.15649  21492211.85909  84340073.41709
        51.200  
  21818718.96908 116306060.88308        46.500    21818717.78508  21818724.95306
  90460291.36905        37.300    21818725.85205                                
                
  23924554.88306 125724461.68106        39.900                                  
  97967072.04546        24.700    23924561.48046                                
                
  24152111.64805 126920210.65205        37.000                                  
  98898902.85345        19.600    24152118.08245                                
                
 19  6  7  4  5 40.0000000  0 17G 7R20G18G 8G27R16G11R19G 9R 9G16R21  .000000000
                                G 1G30R10G22G28
  20230829.96109 106313961.32309        50.600                    20230836.38709
  82841910.84549        43.700    20230836.32849                                
                
  19560067.80508 104596502.17408        47.600    19560067.68408  19560073.93809
  81352855.43009        48.900    19560072.93009                                
                
  20373866.92209 107065423.94709        49.600                                  
  83427615.32049        41.800    20373874.18049                                
                
  22439403.89108 117919928.78308        45.200                    22439413.82007
  91885618.76249        34.300    22439413.56649  22439412.30109  88057046.59409
        48.400  
  25129073.59405 132054281.49505        35.000                    25129084.43006
 102899330.47646        20.900    25129084.85946  25129084.10207  98611844.08707
        41.500  
  21471021.49207 114694247.46707        43.400    21471020.94907  21471024.48406
  89206667.75306        38.600    21471026.01606                                
                
  20268930.37508 106514074.46008        47.900                                  
  82997919.72549        41.700    20268936.16449                                
                
  21451414.72705 114750647.85005        37.500    21451412.98405  21451417.46507
  89250465.71706        39.900    21451417.27006                                
                
  24126350.21905 126784803.70705        35.400                    24126360.32805
  98793377.79745        19.300    24126360.24245  24126360.29307  94676984.82007
        41.300  
  19424360.96909 103725026.50909        53.200    19424360.43409  19424363.27009
  80675034.15109        49.500    19424363.92209                                
                
  25284911.87503                        32.500                                  
                        16.900    25284921.09445                                
                
  22538507.35908 120608113.41408        46.800    22538506.44507  22538512.70307
  93806322.07406        40.800    22538512.94106                                
                
  20243504.03109 106380409.53709        49.200                    20243513.98009
  82893821.47149        43.900    20243514.17649  20243512.34009  79439900.06909
        54.400  
  21490283.87508 112932234.83608        47.900                    21490293.33608
  87999171.26449        40.000    21490292.97749  21490292.62909  84332541.63109
        51.500  
  21815300.64808 116287839.33308        46.600    21815299.43008  21815307.40606
  90446119.04305        37.200    21815307.63705                                
                
  23922788.75806 125715183.08006        39.200                                  
  97959841.98546        22.600    23922796.00846                                
                
  24150312.46105 126910758.27705        37.300                                  
  98891537.41645        19.600    24150319.41045                                
                
 19  6  7  4  5 45.0000000  0 17G 7R20G18G 8G27R16G11R19G 9R 9G16R21  .000000000
                                G 1G30R10G22G28
  20230674.18809 106313141.97509        50.700                    20230680.04309
  82841272.39049        43.800    20230680.34849                                
                
  19560173.18808 104597062.16808        47.200    19560172.36708  19560178.50409
  81353290.97509        48.800    19560177.68409                                
                
  20374528.35209 107068899.30409        49.500                                  
  83430323.38849        42.000    20374535.67649                                
                
  22441466.43807 117930766.71707        44.800                    22441476.27007
  91894063.89749        34.200    22441475.71949  22441474.79309  88065139.85109
        48.100  
  25131597.76604 132067544.00304        34.800                    25131608.62106
 102909664.88346        20.100    25131608.33646  25131608.15206  98621747.84006
        40.900  
  21473533.58607 114707665.98907        43.200    21473532.71107  21473536.42606
  89217104.36406        39.200    21473537.86706                                
                
  20269175.60208 106515365.21708        47.200                                  
  82998925.50949        41.600    20269181.82449                                
                
  21454674.26605 114768085.09205        37.300    21454672.73405  21454677.93806
  89264028.01306        40.400    21454676.85206                                
                
  24128359.99205 126795366.46505        35.700                    24128370.41405
  98801608.50545        19.600    24128370.39145  24128370.64506  94684872.60306
        40.900  
  19423125.84409 103718428.05109        52.800    19423124.77709  19423127.76609
  80669902.01409        50.200    19423128.19509                                
                
  25286764.13303                        32.400                                  
                        16.300    25286774.02045                                
                
  22535628.96108 120592709.84408        46.400    22535628.24208  22535634.70307
  93794341.50807        41.700    22535634.35907                                
                
  20242459.71109 106374921.13409        49.200                    20242469.41809
  82889544.79549        43.700    20242469.57049  20242467.95309  79435801.58409
        54.400  
  21488366.76609 112922161.52809        48.300                    21488376.18008
  87991321.93549        39.800    21488375.86349  21488375.66409  84325019.34909
        51.400  
  21811883.24208 116269620.95508        46.400    21811881.97308  21811890.28506
  90431949.20005        36.700    21811889.91005                                
                
  23921023.61706 125705905.63206        39.400                                  
  97952612.81646        24.700    23921030.56346                                
                
  24148513.05505 126901302.55405        36.800                                  
  98884169.31545        19.300    24148520.22345                                
                
 19  6  7  4  5 50.0000000  0 17G 7R20G18G 8G27R16G11R19G 9R 9G16R21  .000000000
                                G 1G30R10G22G28
  20230521.21109 106312339.44409        50.800                    20230527.46109
  82840647.03749        43.900    20230527.54749                                
                
  19560280.97708 104597640.06808        47.800    19560280.58208  19560286.56609
  81353740.45609        48.700    19560285.79309                                
                
  20375192.75809 107072391.74709        49.300                                  
  83433044.76749        41.500    20375200.29749                                
                
  22443528.57007 117941604.61607        44.700                    22443538.51207
  91902508.99749        34.000    22443538.17249  22443537.03509  88073233.08709
        48.400  
  25134119.82004 132080802.49604        34.200                    25134131.86306
 102919996.15846        20.100    25134131.25446  25134130.99207  98631648.65507
        41.000  
  21476047.32007 114721097.88607        43.000    21476047.55107  21476050.36706
  89227551.38106        39.100    21476052.52706                                
                
  20269424.20308 106516669.64208        47.000                                  
  82999941.94049        42.000    20269429.91449                                
                
  21457934.42205 114785527.05705        37.400    21457933.31605  21457937.53107
  89277593.98306        40.300    21457937.55506                                
                
  24130368.76605 126805927.18605        35.700                    24130380.85205
  98809837.64145        19.600    24130380.23845  24130380.61306  94692758.83406
        40.800  
  19421892.53109 103711845.14809        52.800    19421892.02709  19421895.11709
  80664781.98209        50.300    19421895.45309                                
                
  25288618.14102                        31.900                                  
                        14.800    25288628.08644                                
                
  22532752.05508 120577317.58008        46.100    22532751.85908  22532758.27307
  93782369.76806        40.700    22532758.08206                                
                
  20241418.52309 106369449.64709        49.200                    20241428.43009
  82885281.29449        43.900    20241428.52749  20241426.70309  79431715.73609
        54.300  
  21486452.50809 112912100.86109        48.000                    21486461.77008
  87983482.46249        39.400    21486461.53549  21486461.24209  84317506.51709
        51.500  
  21808465.07008 116251405.76308        46.700    21808464.68008  21808472.82406
  90417781.83305        36.600    21808472.74605                                
                
  23919258.75806 125696629.31506        40.400                                  
  97945384.51446        22.500    23919265.37146                                
                
  24146712.49205 126891843.34605        36.500                                  
  98876798.49245        19.600    24146719.95345                                
                
 19  6  7  4  5 55.0000000  0 17G 7R20G18G 8G27R16G11R19G 9R 9G16R21  .000000000
                                G 1G30R10G22G28
  20230371.67209 106311553.90109        51.200                    20230378.10509
  82840034.91749        43.800    20230378.12549                                
                
  19560392.75008 104598236.14608        47.700    19560392.16408  19560397.57409
  81354204.06509        49.100    19560397.21109                                
                
  20375860.46909 107075901.42909        49.400                                  
  83435779.58049        41.700    20375868.11749                                
                
  22445590.71907 117952442.49507        44.900                    22445600.89507
  91910954.09348        33.700    22445600.58248  22445599.57009  88081326.28009
        48.300  
  25136643.10904 132094057.16404        34.500                    25136653.54306
 102930324.43845        19.300    25136653.73445  25136653.41806  98641546.61306
        40.400  
  21478564.71907 114734543.18007        43.600    21478564.32407  21478568.03506
  89238008.80706        38.900    21478569.30106                                
                
  20269674.85208 106517987.89408        47.500                                  
  83000969.14249        41.600    20269680.69949                                
                
  21461196.23405 114802973.84305        37.400    21461194.69505  21461200.27307
  89291163.69706        40.400    21461199.22306                                
                
  24132379.22705 126816485.91905        36.100                    24132390.04705
  98818065.21346        20.400    24132390.26246  24132389.62107  94700643.61307
        41.100  
  19420663.32809 103705277.91609        52.700    19420662.02309  19420665.25009
  80659674.12609        49.800    19420665.73009                                
                
  25290472.77303 132902363.16903        33.400                                  
 103560270.89745        16.300    25290482.48045                                
                
  22529877.53908 120561936.82408        46.300    22529877.39108  22529883.23007
  93770406.95807        41.200    22529883.80107                                
                
  20240380.71909 106363995.18309        49.300                    20240390.50409
  82881031.07249        44.100    20240390.54349  20240388.69109  79427642.59909
        54.400  
  21484540.25809 112902052.97709        48.000                    21484549.46508
  87975652.93549        39.200    21484549.35549  21484549.09409  84310003.22809
        51.500  
  21805049.48408 116233193.87708        46.800    21805048.00008  21805055.97705
  90403617.04605        36.300    21805056.53905                                
                
  23917493.40606 125687354.20406        39.700                                  
  97938157.13746        22.800    23917500.73846                                
                
  24144912.28905 126882380.85705        36.900                                  
  98869425.08745        19.300    24144919.25045                                
                
 19  6  7  4  6  0.0000000  0 17G 7R20G18G 8G27R16G11R19G 9R 9G16R21  .000000000
                                G 1G30R10G22G28
  20230225.75809 106310785.22009        50.600                    20230231.74609
  82839435.94349        43.700    20230231.77049                                
                
  19560507.19508 104598850.17708        47.000    19560506.81608  19560512.77309
  81354681.64209        48.600    19560512.02709                                
                
  20376531.51609 107079428.20009        49.600                                  
  83438527.71749        41.300    20376539.23449                                
                
  22447653.03107 117963280.18107        44.700                    22447663.12907
  91919399.04449        34.400    22447662.95749  22447662.05109  88089419.36109
        48.400  
  25139165.01605 132107307.95205        37.700                    25139175.85206
 102940649.67046        20.100    25139175.23046  25139174.75806  98651441.66806
        40.700  
  21481084.81307 114748001.88207        43.000    21481084.05107  21481086.93806
  89248476.67506        38.400    21481089.08206                                
                
  20269928.07808 106519319.83608        47.300                                  
  83002007.02149        41.800    20269934.30949                                
                
  21464459.34405 114820425.32505        37.100    21464456.95705  21464461.68807
  89304737.06306        40.300    21464461.48006                                
                
  24134388.75005 126827042.61105        37.000                    24134398.87506
  98826291.22646        20.100    24134399.00846  24134398.26607  94708526.88507
        41.200  
  19419435.79709 103698726.25609        53.200    19419435.19109  19419438.17209
  80654578.38509        50.500    19419438.79709                                
                
  25292329.19503                        32.900                                  
                        15.600    25292338.10545                                
                
  22527007.46908 120546567.40208        46.900    22527005.18408  22527012.24207
  93758452.97107        41.300    22527011.65207                                
                
  20239345.71909 106358557.66409        49.400                    20239355.48009
  82876794.04049        43.800    20239355.82849  20239353.93409  79423582.10609
        54.500  
  21482630.76609 112892017.79209        48.100                    21482640.00008
  87967833.30649        39.800    21482639.84849  21482639.51609  84302509.41209
        51.300  
  21801632.64808 116214985.37708        46.600    21801632.12508  21801640.73806
  90389454.88405        36.500    21801640.51605                                
                
  23915728.87506 125678080.22106        39.800                                  
  97930930.67946        22.300    23915735.81346                                
                
  24143110.85205 126872914.89705        36.600                                  
  98862049.05445        19.300    24143118.46945                                
                
 19  6  7  4  6  5.0000000  0 17G 7R20G18G 8G27R16G11R19G 9R 9G16R21  .000000000
                                G 1G30R10G22G28
  20230082.27309 106310033.40209        50.600                    20230088.86709
  82838850.10949        43.800    20230088.77349                                
                
  19560626.15608 104599482.27408        47.700    19560625.38308  19560630.71109
  81355173.27309        49.100    19560630.28909                                
                
  20377206.07009 107082972.10909        48.800                                  
  83441289.20249        41.400    20377213.62549                                
                
  22449715.10907 117974117.83507        44.500                    22449725.77007
  91927843.94649        34.000    22449725.32449  22449724.23009  88097512.40409
        48.500  
  25141684.97705 132120554.79205        35.900                    25141696.46906
 102950971.93045        19.000    25141695.93845  25141695.50406  98661333.78306
        39.900  
  21483606.43807 114761473.90107        43.700    21483605.80107  21483610.23006
  89258954.90506        38.200    21483610.92206                                
                
  20270184.49208 106520665.46008        46.600                                  
  83003055.55949        41.700    20270190.28149                                
                
  21467720.47705 114837881.55105        37.800    21467719.77705  21467725.33606
  89318314.12306        40.400    21467724.68006                                
                
  24136396.78105 126837597.23205        36.900                    24136407.19106
  98834515.60746        20.900    24136407.32446  24136407.03507  94716408.58007
        41.800  
  19418211.74209 103692190.19809        53.200    19418211.28509  19418213.98009
  80649494.77609        50.400    19418214.84409                                
                
  25294183.68803                        32.600                                  
                        15.600    25294193.71545                                
                
  22524135.64108 120531209.41208        46.200    22524135.12908  22524141.25407
  93746507.88007        41.000    22524141.41007                                
                
  20238314.19509 106353137.09809        49.300                    20238324.20309
  82872570.23049        44.100    20238324.40649  20238322.44509  79419534.28809
        54.500  
  21480723.51609 112881995.32709        48.000                    21480733.09808
  87960023.59049        39.500    21480732.68449  21480732.24609  84295025.10409
        51.200  
  21798217.30508 116196780.24208        47.200    21798217.29707  21798225.17206
  90375295.33705        36.700    21798225.29305                                
                
  23913963.68006 125668807.35906        39.700                                  
  97923705.06546        24.000    23913971.32446                                
                
  24141308.81305 126863445.55005        37.200                                  
  98854670.32746        20.400    24141316.00046                                
                
 19  6  7  4  6 10.0000000  0 17G 7R20G18G 8G27R16G11R19G 9R 9G16R21  .000000000
                                G 1G30R10G22G28
  20229942.63309 106309298.50709        50.400                    20229948.82809
  82838277.45449        43.800    20229948.94149                                
                
  19560746.85908 104600132.33608        47.300    19560746.65208  19560752.77009
  81355678.87809        48.800    19560751.91009                                
                
  20377884.09409 107086533.21509        49.400                                  
  83444064.08449        41.500    20377891.38349                                
                
  22451778.38307 117984955.45607        44.900                    22451788.19107
  91936288.84249        34.800    22451787.48449  22451786.69509  88105605.42209
        48.700  
  25144204.64105 132133797.77205        35.900                    25144216.68806
 102961291.12645        18.600    25144215.94545  25144215.34006  98671223.01806
        39.600  
  21486130.32807 114774959.32207        43.000    21486130.28507  21486133.28906
  89269443.55206        38.500    21486135.36306                                
                
  20270443.18008 106522024.81508        46.600                                  
  83004114.79549        41.500    20270448.89849                                
                
  21470986.55505 114855342.52305        37.400    21470984.21905  21470988.96507
  89331894.87406        40.900    21470988.82406                                
                
  24138404.54705 126848149.82405        37.200                    24138416.00406
  98842738.40446        22.000    24138415.56346  24138415.73407  94724288.77007
        42.500  
  19416990.78109 103685669.83409        53.100    19416990.00409  19416992.88709
  80644423.38609        50.600    19416993.63309                                
                
  25296041.12504 132931621.69304        34.400                                  
 103583069.75145        16.300    25296050.08645                                
                
  22521268.21908 120515862.87808        46.600    22521268.14108  22521274.16807
  93734571.67007        41.200    22521273.51607                                
                
  20237285.69509 106347733.52209        49.300                    20237295.53909
  82868359.65149        43.900    20237296.06649  20237294.12109  79415499.15909
        54.300  
  21478818.78909 112871985.63409        48.300                    21478828.16008
  87952223.82149        39.500    21478827.85249  21478827.43009  84287550.32509
        51.300  
  21794802.59408 116178578.32208        47.400    21794802.50808  21794810.77306
  90361138.29405        36.800    21794810.64505                                
                
  23912199.89806 125659535.72106        39.900                                  
  97916480.40746        22.900    23912206.88346                                
                
  24139506.42205 126853972.81805        36.400                                  
  98847288.99246        20.400    24139513.86746                                
                
 19  6  7  4  6 15.0000000  0 17G 7R20G18G 8G27R16G11R19G 9R 9G16R21  .000000000
                                G 1G30R10G22G28
  20229806.00809 106308580.45509        50.500                    20229812.26609
  82837717.93649        43.400    20229812.37149                                
                
  19560871.63308 104600800.43108        47.000    19560871.68808  19560877.58209
  81356198.50509        49.300    19560876.92609                                
                
  20378564.74209 107090111.35909        49.900                                  
  83446852.25049        41.400    20378572.24249                                
                
  22453840.30507 117995792.97007        44.900                    22453850.41007
  91944733.65449        34.400    22453849.77349  22453848.94109  88113698.37209
        48.700  
  25146724.52304 132147036.74204        34.400                    25146735.76206
 102971607.18445        17.800    25146735.05945  25146734.69906  98681109.23706
        39.700  
  21488657.99207 114788458.10507        42.800    21488657.23407  21488660.63706
  89279942.58606        38.600    21488662.57006                                
                
  20270704.57808 106523397.79108        47.600                                  
  83005184.64449        41.600    20270710.22349                                
                
  21474250.32805 114872808.10205        37.600    21474249.82005  21474254.27707
  89345479.20306        40.000    21474253.84806                                
                
  24140412.43805 126858700.29305        36.800                    24140422.96106
  98850959.56346        20.900    24140423.63746  24140423.34807  94732167.36507
        42.400  
  19415772.90609 103679165.02509        52.200    19415771.93409  19415774.88709
  80639364.08809        50.100    19415775.53909                                
                
  25297897.51603                        33.200                                  
                        14.800    25297907.46944                                
                
  22518403.09408 120500527.71108        46.300    22518401.85908  22518407.50807
  93722644.32707        41.600    22518408.05507                                
                
  20236261.00809 106342346.87009        49.200                    20236270.84009
  82864162.26249        44.100    20236271.07049  20236269.11709  79411476.66209
        54.300  
  21476916.46909 112861988.61309        48.100                    21476925.68008
  87944433.93249        40.200    21476925.29349  21476925.21509  84280085.01809
        51.200  
  21791388.93008 116160379.51408        46.000    21791388.33608  21791396.75006
  90346983.67105        36.900    21791396.43805                                
                
  23910436.22706 125650265.16206        39.700                                  
  97909256.59646        22.800    23910442.71546                                
                
  24137703.34405 126844496.63505        36.500                                  
  98839904.94445        19.900    24137710.38345                                
                
 19  6  7  4  6 20.0000000  0 17G 7R20G18G 8G27R16G11R19G 9R 9G16R21  .000000000
                                G 1G30R10G22G28
  20229672.61709 106307879.30409        50.300                    20229678.77709
  82837171.57549        43.300    20229678.80949                                
                
  19561000.10908 104601486.55708        47.100    19561000.12108  19561006.33209
  81356732.15409        48.800    19561005.15609                                
                
  20379249.06309 107093706.67809        49.500                                  
  83449653.79149        41.700    20379256.41849                                
                
  22455902.65607 118006630.43607        44.500                    22455912.67207
  91953178.42049        34.200    22455912.23449  22455911.28509  88121791.25909
        48.300  
  25149242.32803 132160271.79203        33.600                    25149254.46506
 102981920.17445        17.800    25149254.33645  25149253.30506  98690992.58706
        39.000  
  21491187.07807 114801970.08707        42.900    21491186.53907  21491191.10906
  89290451.88806        38.300    21491192.02706                                
                
  20270968.35908 106524784.48208        47.800                                  
  83006265.17549        41.900    20270974.14149                                
                
  21477515.58605 114890278.44505        37.600    21477515.66005  21477520.19106
  89359067.25006        40.200    21477519.96906                                
                
  24142420.43005 126869248.67205        36.900                    24142430.59406
  98859179.06146        21.800    24142430.84046  24142430.47707  94740044.41307
        42.500  
  19414557.75809 103672675.84309        53.000    19414556.74609  19414559.70709
  80634316.93609        50.500    19414560.24209                                
                
  25299755.82802 132951143.84212        31.000                                  
 103598281.82655        15.600    25299765.43445                                
                
  22515539.48408 120485203.98208        46.700    22515538.40608  22515544.52007
  93710725.87907        41.200    22515544.28907                                
                
  20235239.18809 106336977.19409        49.300                    20235248.80109
  82859978.09649        43.800    20235249.19549  20235247.35909  79407466.84109
        54.400  
  21475016.36709 112852004.36409        48.300                    21475025.72308
  87936654.00449        39.900    21475025.62549  21475025.21109  84272629.24309
        51.600  
  21787976.29708 116142184.03408        46.600    21787974.98008  21787982.81305
  90332831.63105        36.800    21787982.81605                                
                
  23908671.84406 125640995.83306        39.900                                  
  97902033.73046        22.500    23908678.84046                                
                
  24135898.93805 126835017.04405        36.600                                  
  98832518.24645        18.600    24135906.55945                                
                
 19  6  7  4  6 25.0000000  0 17G 7R20G18G 8G27R16G11R19G 9R 9G16R21  .000000000
                                G 1G30R10G22G28
  20229542.43809 106307195.06709        50.500                    20229548.65209
  82836638.40449        43.800    20229548.65249                                
                
  19561131.60908 104602190.58208        47.900    19561131.51608  19561137.69909
  81357279.73309        48.600    19561136.80109                                
                
  20379936.40609 107097319.08409        49.400                                  
  83452468.64849        41.700    20379943.96549                                
                
  22457965.10207 118017467.73207        44.900                    22457974.95707
  91961623.06649        34.600    22457974.58249  22457973.48009  88129884.04409
        48.200  
  25151761.43004 132173502.90904        34.800                    25151772.24206
 102992230.13045        17.800    25151771.59445  25151771.58606  98700872.93606
        39.400  
  21493719.35907 114815495.45507        43.000    21493718.48407  21493722.86706
  89300971.59406        38.500    21493724.31306                                
                
  20271234.65608 106526184.80508        47.200                                  
  83007356.33449        41.800    20271240.54749                                
                
  21480782.48405 114907753.43605        37.500    21480781.96905  21480787.45706
  89372658.90406        40.600    21480786.57006                                
                
  24144426.76605 126879794.92205        37.900                    24144437.33606
  98867396.93046        22.500    24144437.53146  24144437.35207  94747919.87907
        42.800  
  19413345.07809 103666202.36309        52.900    19413344.64509  19413347.29709
  80629282.00509        50.100    19413348.01609                                
                
  25301613.25801 132960909.97011        30.500                                  
 103605891.73355        16.300    25301623.90645                                
                
  22512676.75808 120469891.64008        46.600    22512676.25007  22512682.12107
  93698816.29006        40.700    22512682.77306                                
                
  20234220.44509 106331624.50709        49.300                    20234230.16809
  82855807.17449        44.400    20234230.60249  20234228.86309  79403469.70209
        54.400  
  21473119.01609 112842032.84409        48.300                    21473128.14108
  87928883.98149        40.700    21473127.93049  21473127.68009  84265182.97709
        51.300  
  21784563.25808 116123991.91608        47.200    21784562.41408  21784569.37906
  90318682.20605        36.800    21784569.96905                                
                
  23906908.33606 125631727.68006        39.600                                  
  97894811.79546        22.900    23906915.09846                                
                
  24134094.64805 126825534.06205        35.000                                  
  98825128.90845        19.300    24134101.69945                                
                
 19  6  7  4  6 30.0000000  0 17G 7R20G18G 8G27R16G11R19G 9R 9G16R21  .000000000
                                G 1G30R10G22G28
  20229415.43009 106306527.71909        50.500                    20229421.59809
  82836118.38349        43.600    20229421.71549                                
                
  19561266.17208 104602912.62808        47.800    19561266.65608  19561272.37109
  81357841.31709        48.600    19561271.77309                                
                
  20380627.18809 107100948.63009        49.500                                  
  83455296.86249        41.800    20380634.53949                                
                
  22460027.48407 118028304.91707        44.700                    22460036.82407
  91970067.61249        35.000    22460036.81649  22460035.51609  88137976.72309
        48.400  
  25154278.32005 132186730.13305        36.700                    25154289.09006
 103002536.99945        18.600    25154288.61345  25154288.53506  98710750.41106
        38.800  
  21496253.83607 114829034.15507        43.300    21496253.19107  21496257.16406
  89311501.67806        39.100    21496258.69106                                
                
  20271504.05508 106527598.80208        47.200                                  
  83008458.14649        41.800    20271509.63749                                
                
  21484050.20305 114925233.11505        37.700    21484050.20705  21484053.29307
  89386254.19606        40.500    21484054.19506                                
                
  24146433.18005 126890339.10905        37.300                    24146443.95306
  98875613.18646        22.300    24146444.23446  24146444.35907  94755793.77307
        42.600  
  19412135.93809 103659744.60609        52.900    19412135.44509  19412138.27309
  80624259.30109        50.600    19412138.68409                                
                
  25303472.79703                        32.800                                  
                        16.900    25303483.31345                                
                
  22509818.62508 120454590.79108        46.500    22509817.29308  22509823.76607
  93686915.63106        40.700    22509823.48006                                
                
  20233205.35209 106326288.78909        49.500                    20233214.84009
  82851649.48149        43.900    20233215.16849  20233213.45709  79399485.24409
        54.400  
  21471223.47709 112832074.09809        48.100                    21471233.15208
  87921123.91049        39.900    21471232.99649  21471232.51209  84257746.24709
        51.000  
  21781150.68008 116105803.08008        46.400    21781149.82007  21781157.83205
  90304535.34405        37.100    21781157.71105                                
                
  23905144.93006 125622460.77106        39.800                                  
  97887590.82046        22.600    23905151.61346                                
                
  24132289.60905 126816047.66005        35.900                                  
  98817736.94346        20.100    24132296.52046                                
                
 19  6  7  4  6 35.0000000  0 17G 7R20G18G 8G27R16G11R19G 9R 9G16R21  .000000002
                                G 1G30R10G22G28
  20229291.54709 106305877.18509        50.300                    20229298.17209
  82835611.47949        43.600    20229297.85249                                
                
  19561405.28108 104603652.63008        47.300    19561404.80908  19561410.80909
  81358416.87509        49.000    19561410.17609                                
                
  20381321.02309 107104595.25409        49.100                                  
  83458138.39049        41.600    20381328.37149                                
                
  22462088.93007 118039141.95107        44.300                    22462099.34007
  91978512.04649        34.600    22462099.11349  22462098.06309  88146069.31809
        48.700  
  25156795.51605 132199953.41305        35.400                    25156805.11305
 103012840.88045        18.600    25156805.34445  25156804.92206  98720624.93906
        39.100  
  21498790.56307 114842586.17807        43.000    21498790.49207  21498794.14506
  89322042.12206        38.800    21498795.80506                                
                
  20271775.58608 106529026.42108        47.000                                  
  83009570.57149        41.300    20271781.42249                                
                
  21487320.57005 114942717.36305        37.200    21487318.36705  21487323.56307
  89399853.04506        40.500    21487322.66406                                
                
  24148439.78905 126900881.12105        37.300                    24148450.04706
  98883827.71746        22.000    24148450.39546  24148450.71107  94763666.06507
        43.000  
  19410929.33609 103653302.49109        52.900    19410928.90209  19410932.26609
  80619248.76009        50.900    19410932.36709                                
                
  25305333.49203                        32.200                                  
                        14.800    25305342.59044                                
                
  22506960.68808 120439301.35408        46.700    22506959.91808  22506966.45307
  93675023.85207        41.000    22506966.18807                                
                
  20232193.27309 106320970.06009        49.300                    20232202.62909
  82847505.01349        44.400    20232203.10249  20232201.37109  79395513.47009
        54.500  
  21469331.50809 112822128.12309        48.100                    21469340.23008
  87913373.80049        39.700    21469340.01649  21469339.87509  84250319.05809
        51.200  
  21777738.99208 116087617.62908        46.600    21777738.26207  21777746.40605
  90290391.10305        37.200    21777746.14105                                
                
  23903381.18806 125613195.05906        39.400                                  
  97880370.80046        22.600    23903388.36746                                
                
  24130483.56305 126806557.86905        36.200                                  
  98810342.27545        19.900    24130490.72745                                
                
 19  6  7  4  6 40.0000000  0 17G 7R20G18G 8G27R16G11R19G 9R 9G16R21  .000000000
                                G 1G30R10G22G28
  20229171.18009 106305243.51609        50.400                    20229177.33209
  82835117.70449        43.800    20229177.35949                                
                
  19561547.03908 104604410.55708        47.500    19561546.80508  19561552.52709
  81359006.36909        48.800    19561551.96109                                
                
  20382018.14809 107108258.93609        48.800                                  
  83460993.20149        42.000    20382025.68049                                
                
  22464151.53907 118049978.85507        44.900                    22464161.31607
  91986956.38349        34.200    22464161.12949  22464160.12509  88154161.80409
        48.500  
  25159310.29705 132213172.69405        37.200                    25159320.48805
 103023141.59245        19.000    25159320.82045  25159320.19506  98730496.47306
        38.800  
  21501329.90607 114856151.43907        42.700    21501329.77707  21501334.23806
  89332592.86606        39.000    21501335.18406                                
                
  20272049.96108 106530467.63408        47.600                                  
  83010693.60149        41.700    20272055.65249                                
                
  21490589.69506 114960206.14706        38.000    21490587.45305  21490592.33207
  89413455.42806        40.300    21490592.09006                                
                
  24150444.89105 126911420.98705        37.600                    24150456.17206
  98892040.59446        22.200    24150456.03546  24150456.12507  94771536.73307
        43.000  
  19409726.21109 103646876.01109        52.900    19409725.42209  19409728.37909
  80614250.38209        49.900    19409728.84809                                
                
  25307192.27303 132990228.15303        32.800                                  
 103628737.00342        12.600    25307202.45742                                
                
  22504106.14108 120424023.36308        46.500    22504104.93808  22504111.23407
  93663140.96707        41.000    22504110.96907                                
                
  20231184.23409 106315668.28409        49.400                    20231193.82809
  82843373.76149        44.300    20231194.18049  20231192.55509  79391554.35309
        54.400  
  21467440.67209 112812194.92009        48.400                    21467450.18408
  87905633.64149        39.800    21467449.94549  21467449.55509  84242901.39609
        51.300  
  21774328.25808 116069435.63908        46.300    21774327.30908  21774334.91405
  90276249.56505        37.000    21774335.28105                                
                
  23901618.38306 125603930.53906        39.500                                  
  97873151.68946        22.300    23901625.30146                                
                
  24128676.98405 126797064.66205        35.700                                  
  98802944.96545        19.300    24128684.42245                                
                
 19  6  7  4  6 45.0000000  0 17G 7R20G18G 8G27R16G11R19G 9R 9G16R21  .000000002
                                G 1G30R10G22G28
  20229053.30509 106304626.73809        50.300                    20229059.80509
  82834637.09249        43.500    20229059.89149                                
                
  19561691.97708 104605186.38108        47.700    19561691.72708  19561697.58609
  81359609.78909        49.100    19561696.96109                                
                
  20382718.77309 107111939.67909        50.000                                  
  83463861.30849        42.100    20382726.11349                                
                
  22466214.05507 118060815.62607        44.700                    22466223.45307
  91995400.61149        34.400    22466222.84049  22466222.16409  88162254.18209
        48.400  
  25161825.24205 132226388.06405        35.100                    25161835.12905
 103033439.27445        18.300    25161835.09045  25161834.95305  98740365.04005
        37.500  
  21503872.60207 114869730.04507        43.200    21503871.66007  21503875.53506
  89343153.98206        39.300    21503877.19106                                
                
  20272326.54709 106531922.45609        48.200                                  
  83011827.22149        42.000    20272332.40649                                
                
  21493858.88305 114977699.52705        37.300    21493858.22705  21493862.65207
  89427061.38006        40.400    21493862.32806                                
                
  24152450.29705 126921958.69905        37.100                    24152460.89106
  98900251.80046        21.300    24152460.94546  24152461.32407  94779405.80107
        43.500  
  19408525.43809 103640465.27809        52.700    19408524.83609  19408527.81309
  80609264.26009        50.200    19408528.36709                                
                
  25309053.43003 133000007.44903        32.500                                  
 103636357.21943        13.900    25309064.01643                                
                
  22501253.60908 120408756.86808        46.800    22501251.93008  22501257.43807
  93651267.02906        40.700    22501257.95306                                
                
  20230178.68809 106310383.53809        49.300                    20230188.39109
  82839255.78249        44.100    20230188.59849  20230186.77709  79387607.95109
        54.500  
  21465552.79709 112802274.47409        48.300                    21465562.26608
  87897903.42849        39.300    21465562.21549  21465561.95309  84235493.27609
        51.300  
  21770918.20308 116051256.94408        46.200    21770916.79708  21770924.93405
  90262110.58005        36.500    21770924.82805                                
                
  23899855.99206 125594667.26006        39.400                                  
  97865933.53946        22.300    23899862.70746                                
                
  24126869.55505 126787568.05105        35.700                                  
  98795545.02745        19.300    24126877.09045                                
                
 19  6  7  4  6 50.0000000  0 17G 7R20G18G 8G27R16G11R19G 9R 9G16R21  .000000000
                                G 1G30R10G22G28
  20228939.49209 106304026.84109        50.400                    20228945.71509
  82834169.64149        43.900    20228945.77749                                
                
  19561840.10208 104605980.13908        47.400    19561840.24608  19561845.97709
  81360227.15409        49.100    19561845.49209                                
                
  20383422.36709 107115637.54309        49.600                                  
  83466742.75849        41.700    20383429.75049                                
                
  22468276.10208 118071652.31908        45.100                    22468286.05907
  92003844.78149        34.200    22468285.20349  22468284.57009  88170346.49609
        48.500  
  25164338.85205 132239599.44505        36.200                    25164348.70705
 103043733.84545        19.000    25164349.27345  25164348.64506  98750230.69206
        38.500  
  21506416.96107 114883321.86207        42.600    21506415.96107  21506419.99206
  89353725.37706        39.700    21506421.57406                                
                
  20272606.12508 106533390.87808        47.800                                  
  83012971.45049        42.000    20272611.90249                                
                
  21497130.53105 114995197.40405        37.500    21497129.16005  21497133.90206
  89440670.83406        40.700    21497133.36306                                
                
  24154454.88305 126932494.17605        36.600                    24154465.55506
  98908461.26846        21.500    24154465.80546  24154466.65607  94787273.21807
        43.800  
  19407328.02309 103634070.28709        52.500    19407327.06309  19407330.13309
  80604290.37009        50.600    19407330.75009                                
                
  25310917.02303 133009790.11003        32.200                                  
 103643980.08745        16.300    25310925.63345                                
                
  22498401.77308 120393501.88908        46.600    22498401.14108  22498407.33607
  93639402.05806        40.900    22498407.43006                                
                
  20229176.03909 106305115.77409        49.300                    20229185.87909
  82835151.02749        44.500    20229186.09849  20229184.34409  79383674.22109
        54.400  
  21463667.81309 112792366.85009        48.500                    21463676.96508
  87890183.19749        40.400    21463676.80549  21463676.51209  84228094.72809
        51.200  
  21767507.49208 116033081.73908        46.300    21767507.11308  21767515.43806
  90247974.31005        36.700    21767515.41805                                
                
  23898093.64106 125585405.29606        38.900                                  
  97858716.43646        21.800    23898100.07046                                
                
  24125062.22705 126778068.02005        36.100                                  
  98788142.39446        20.100    24125069.07846                                
                
 19  6  7  4  6 55.0000000  0 17G 7R20G18G 8G27R16G11R19G 9R 9G16R21  .000000000
                                G 1G30R10G22G28
  20228828.65609 106303443.86709        50.300                    20228834.70309
  82833715.36849        43.600    20228834.93049                                
                
  19561992.04708 104606791.70708        47.500    19561992.02008  19561997.98809
  81360858.37709        49.000    19561997.18809                                
                
  20384129.33609 107119352.52909        49.400                                  
  83469637.55649        41.700    20384136.71549                                
                
  22470338.21908 118082488.89908        45.000                    22470348.18007
  92012288.86049        35.200    22470347.50449  22470346.69509  88178438.76109
        48.600  
  25166852.29705 132252806.88705        36.300                    25166862.01603
 103054025.37545        19.300    25166862.18445  25166862.45706  98760093.40406
        39.200  
  21508962.97707 114896926.99607        42.800    21508963.14507  21508968.37506
  89364307.12206        39.800    21508968.60906                                
                
  20272888.18009 106534872.96909        48.200                                  
  83014126.32149        41.700    20272893.75849                                
                
  21500401.00805 115012699.89405        37.700    21500401.12105  21500404.82806
  89454283.88506        40.400    21500405.14806                                
                
  24156458.92205 126943027.57905        35.500                    24156470.10906
  98916669.08146        21.500    24156470.14846  24156470.97307  94795139.04207
        43.800  
  19406133.19509 103627691.05209        52.900    19406132.48409  19406135.54309
  80599328.73909        50.600    19406136.16009                                
                
  25312778.54702 133019576.10612        31.600                                  
 103651605.55055        15.600    25312787.92245                                
                
  22495553.00808 120378258.35708        45.900    22495552.09808  22495559.26607
  93627545.98006        40.600    22495558.73006                                
                
  20228176.78109 106299865.01209        49.200                    20228186.30109
  82831059.53149        44.000    20228187.00049  20228185.06309  79379753.20709
        54.300  
  21461785.12509 112782472.05009        48.400                    21461794.30908
  87882472.95949        39.600    21461794.09049  21461793.50409  84220705.75009
        51.500  
  21764099.29708 116014910.08008        46.800    21764098.40608  21764105.89105
  90233840.79905        36.700    21764106.42605                                
                
  23896331.01606 125576144.62206        39.200                                  
  97851500.31846        21.500    23896337.85546                                
                
  24123253.89805 126768564.64905        35.900                                  
  98780737.14446        20.600    24123260.96146                                
                
 19  6  7  4  7  0.0000000  0 17G 7R20G18G 8G27R16G11R19G 9R 9G16R21  .000000000
                                G 1G30R10G22G28
  20228720.97709 106302877.81609        50.300                    20228726.83609
  82833274.28349        43.900    20228727.20749                                
                
  19562147.57808 104607621.34108        47.500    19562147.19108  19562153.08609
  81361503.64509        48.500    19562152.47309                                
                
  20384839.46909 107123084.58209        50.200                                  
  83472545.64649        41.800    20384846.82449                                
                
  22472400.40607 118093325.38607        44.800                    22472409.65607
  92020732.86349        34.500    22472409.51249  22472408.53109  88186530.93509
        48.400  
  25169364.41405 132266010.41905        36.700                    25169375.26203
 103064313.81845        17.800    25169374.66045  25169374.75806  98769953.16806
        38.700  
  21511512.60207 114910545.42607        42.600    21511512.58607  21511516.74206
  89374899.21806        38.700    21511518.03506                                
                
  20273172.74209 106536368.70109        48.000                                  
  83015291.81949        42.000    20273178.46149                                
                
  21503675.08606 115030206.79606        38.100    21503674.10505  21503678.51206
  89467900.34906        39.600    21503677.82006                                
                
  24158463.60905 126953558.72705        35.800                    24158473.66005
  98924875.17846        20.600    24158474.05146  24158474.75007  94803003.22307
        43.900  
  19404941.06309 103621327.60109        53.300    19404940.99609  19404943.81309
  80594379.37909        50.400    19404944.53909                                
                
  25314638.82801                        29.100                                  
                        14.800    25314650.80144                                
                
  22492706.06308 120363026.25608        45.800    22492705.18007  22492713.44906
  93615698.80706        40.600    22492711.77306                                
                
  20227180.86709 106294631.29409        49.700                    20227190.61709
  82826981.31149        44.300    20227190.92249  20227189.11309  79375844.92009
        54.400  
  21459904.26609 112772590.09609        48.100                    21459913.47308
  87874772.72949        39.900    21459913.30149  21459913.07009  84213326.35709
        51.200  
  21760690.71908 115996741.83408        46.600    21760689.93807  21760698.05905
  90219709.94205        36.900    21760698.23805                                
                
  23894569.06306 125566885.18606        38.800                                  
  97844285.19046        21.300    23894575.63746                                
                
  24121444.42205 126759057.85305        36.200                                  
  98773329.28646        20.100    24121451.70346                                
                
 19  6  7  4  7  5.0000000  0 17G 7R20G18G 8G27R16G11R19G 9R 9G16R21  .000000000
                                G 1G30R10G22G28
  20228616.35909 106302328.74409        50.300                    20228622.50809
  82832846.42549        43.800    20228622.59049                                
                
  19562306.09408 104608468.92908        47.800    19562305.99208  19562311.49209
  81362162.87709        49.300    19562310.87509                                
                
  20385552.81309 107126833.78309        49.200                                  
  83475467.09049        42.300    20385560.37149                                
                
  22474462.38307 118104161.76207        44.700                    22474472.15607
  92029176.79148        33.900    22474471.84448  22474470.64809  88194623.01709
        48.000  
  25171876.35205 132279210.03805        36.600                    25171887.43004
 103074599.27545        18.300    25171886.48845  25171887.01206  98779809.97006
        39.200  
  21514064.05507 114924177.26107        42.200    21514064.28107  21514069.12106
  89385501.74206        39.400    21514069.93406                                
                
  20273459.82808 106537878.14008        47.100                                  
  83016468.00249        41.700    20273465.81349                                
                
  21506948.27306 115047718.44906        38.100    21506947.32005  21506952.47706
  89481520.51706        40.300    21506951.66406                                
                
  24160466.18004 126964087.78104        34.800                    24160477.21905
  98933079.66146        20.400    24160477.55146  24160478.14507  94810865.81307
        43.700  
  19403753.00809 103614979.98309        52.900    19403752.18009  19403755.29709
  80589442.34109        50.100    19403755.63309                                
                
  25316504.04701                        27.600                                  
                        16.300    25316514.54745                                
                
  22489861.89108 120347805.80308        46.100    22489861.36707  22489867.79307
  93603860.67907        41.000    22489867.71907                                
                
  20226188.32809 106289414.67109        49.300                    20226198.00809
  82822916.40349        43.900    20226198.27349  20226196.41409  79371949.39209
        54.400  
  21458026.41409 112762721.05409        48.200                    21458035.57008
  87867082.56749        39.900    21458035.26649  21458034.96509  84205956.62209
        51.400  
  21757283.93808 115978576.99908        46.900    21757282.50808  21757289.78105
  90205581.74305        36.400    21757290.55105                                
                
  23892807.42206 125557627.17306        39.100                                  
  97837071.11746        21.800    23892813.41846                                
                
  24119635.41405 126749547.75305        36.000                                  
  98765918.81945        19.900    24119641.97745                                
                
 19  6  7  4  7 10.0000000  0 16G 7R20G18G 8G27R16G11R19G 9R 9R21G 1  .000000000
                                G30R10G22G28
  20228515.10209 106301796.62909        50.400                    20228521.42609
  82832431.78949        44.100    20228521.37949                                
                
  19562467.91408 104609334.43908        47.500    19562467.53908  19562473.48409
  81362836.05109        49.000    19562472.77309                                
                
  20386269.60909 107130600.15809        49.500                                  
  83478401.93449        42.400    20386276.90249                                
                
  22476524.38307 118114998.00307        44.800                    22476534.25807
  92037620.60849        34.200    22476533.74649  22476532.94109  88202715.01509
        48.400  
  25174388.03905 132292405.74605        36.600                    25174397.73003
 103084881.55145        18.300    25174397.65245  25174397.31305  98789663.92505
        37.200  
  21516619.40607 114937822.32207        42.600    21516618.67206  21516622.98406
  89396114.55306        38.400    21516624.21906                                
                
  20273750.01608 106539401.23508        47.800                                  
  83017654.82949        41.500    20273755.62949                                
                
  21510223.86705 115065234.63305        37.600    21510222.14505  21510225.96106
  89495144.20406        40.200    21510225.96906                                
                
  24162470.26603 126974614.67803        33.300                    24162479.93005
  98941282.44245        18.600    24162480.49645  24162481.24207  94818726.80407
        43.600  
  19402567.14809 103608648.21209        52.900    19402566.53109  19402569.41809
  80584517.62109        50.800    19402570.11309                                
                
  22487019.96108 120332596.87708        46.200    22487018.97708  22487026.13307
  93592031.51906        40.900    22487025.45706                                
                
  20225198.85909 106284215.12009        49.300                    20225208.43809
  82818864.81149        43.800    20225208.84449  20225207.02009  79368066.61209
        54.400  
  21456150.86709 112752864.90109        48.100                    21456160.14108
  87859402.44749        39.700    21456159.57849  21456159.43409  84198596.50809
        51.300  
  21753876.37508 115960415.67608        46.300    21753875.33607  21753882.32805
  90191456.26905        36.400    21753883.51205                                
                
  23891045.93806 125548370.46306        38.400                                  
  97829858.11246        21.800    23891052.04346                                
                
  24117824.63305 126740034.25705        36.200                                  
  98758505.71645        19.900    24117831.18445                                
                
 19  6  7  4  7 15.0000000  0 16G 7R20G18G 8G27R16G11R19G 9R 9R21G 1  .000000000
                                G30R10G22G28
  20228417.00009 106301281.59509        50.400                    20228423.33609
  82832030.46649        43.900    20228423.38749                                
                
  19562632.91408 104610218.07508        47.600    19562632.66008  19562638.50009
  81363523.32609        49.500    19562638.04709                                
                
  20386989.75009 107134383.72709        49.700                                  
  83481350.16649        41.700    20386996.93449                                
                
  22478586.35907 118125834.36707        44.800                    22478596.55107
  92046064.51849        34.200    22478595.63749  22478595.02309  88210807.06909
        48.300  
  25176898.50005 132305597.78405        37.300                    25176907.72303
 103095161.08045        17.800    25176907.30945  25176907.23405  98799515.10605
        36.000  
  21519176.43007 114951480.84507        42.600    21519175.43806  21519179.50806
  89406737.82006        38.300    21519180.88706                                
                
  20274042.60909 106540938.10509        48.400                                  
  83018852.39349        41.800    20274048.05149                                
                
  21513499.60905 115082755.46505        36.700    21513496.96905  21513502.00807
  89508771.50306        40.900    21513501.49206                                
                
  24164471.78103 126985139.55103        32.800                    24164482.69905
  98949483.62645        16.900    24164483.42645  24164484.40207  94826586.26807
        43.600  
  19401384.82009 103602332.43809        53.000    19401383.65609  19401386.61309
  80579605.35109        51.300    19401387.35209                                
                
  22484180.07808 120317399.67308        46.500    22484179.64108  22484186.04707
  93580211.47907        41.000    22484185.52007                                
                
  20224212.70309 106279032.79009        49.300                    20224222.40209
  82814826.63049        44.500    20224222.61749  20224220.87109  79364196.68909
        54.400  
  21454277.79709 112743021.79909        48.200                    21454286.96508
  87851732.49649        39.400    21454286.88349  21454286.40609  84191246.12809
        51.200  
  21750470.32008 115942258.04608        47.100    21750469.40208  21750475.99206
  90177333.67305        37.000    21750477.29705                                
                
  23889284.44506 125539115.30006        38.900                                  
  97822646.29446        21.100    23889291.03146                                
                
  24116013.60205 126730517.59805        36.300                                  
  98751090.13345        18.600    24116020.78545                                
                
 19  6  7  4  7 20.0000000  0 16G 7R20G18G 8G27R16G11R19G 9R 9R21G 1  .000000000
                                G30R10G22G28
  20228322.43809 106300783.45409        50.500                    20228328.61709
  82831642.30449        43.300    20228328.69149                                
                
  19562800.93008 104611119.51908        47.500    19562801.26208  19562807.03509
  81364224.44609        49.100    19562806.63709                                
                
  20387712.85209 107138184.37409        49.200                                  
  83484311.70149        41.500    20387720.21949                                
                
  22480648.84407 118136670.47607        44.700                    22480658.58607
  92054508.23149        34.300    22480657.96949  22480657.09809  88218898.97309
        48.300  
  25179408.34405 132318785.76705        37.100                    25179416.17202
 103105437.42945        16.300    25179416.24645  25179417.19105  98809363.28905
        37.900  
  21521735.35207 114965152.63407        43.400    21521734.69107  21521739.52306
  89417371.42206        38.000    21521740.19906                                
                
  20274337.58609 106542488.58009        48.000                                  
  83020060.55349        41.700    20274343.14849                                
                
  21516775.47705 115100280.77505        37.400    21516773.23405  21516777.32806
  89522402.30406        40.100    21516777.57406                                
                
  24166473.70303 126995662.15003        32.400                    24166485.21505
  98957683.06045        17.800    24166485.34045  24166486.59807  94834444.06807
        44.700  
  19400204.32809 103596032.56909        52.600    19400204.03109  19400207.13709
  80574705.45309        51.300    19400207.71509                                
                
  22481342.21908 120302213.96508        47.000    22481341.71108  22481347.91406
  93568400.37806        40.000    22481347.53506                                
                
  20223229.68009 106273867.48809        49.400                    20223239.32409
  82810801.72249        44.600    20223239.69149  20223237.94509  79360339.48009
        54.300  
  21452407.41409 112733191.54309        48.300                    21452416.66008
  87844072.55349        39.800    21452415.97749  21452415.73009  84183905.35509
        51.200  
  21747064.96908 115924104.04808        46.900    21747063.80508  21747071.10505
  90163213.89905        36.500    21747071.48405                                
                
  23887523.48406 125529861.44606        38.600                                  
  97815435.48446        22.200    23887530.17246                                
                
  24114201.85205 126720997.47005        36.700                                  
  98743671.85246        20.400    24114208.87546                                
                
 19  6  7  4  7 25.0000000  0 16G 7R20G18G 8G27R16G11R19G 9R 9R21G 1  .000000000
                                G30R10G22G28
  20228230.49209 106300302.25809        50.400                    20228236.86709
  82831267.33449        43.500    20228237.04749                                
                
  19562973.75808 104612038.84608        47.900    19562973.31308  19562978.88709
  81364939.47309        49.400    19562978.52309                                
                
  20388439.44509 107142002.11409        49.600                                  
  83487286.56949        41.800    20388446.69149                                
                
  22482710.82007 118147506.34307        44.700                    22482720.48007
  92062951.75348        33.800    22482719.90648  22482719.10909  88226990.69809
        48.800  
  25181917.07005 132331969.86805        36.600                    25181925.71904
 103115710.81445        17.800    25181925.34445  25181926.78905  98819208.53405
        37.700  
  21524297.62507 114978837.70807        43.100    21524297.14507  21524301.08206
  89428015.35405        37.900    21524302.26605                                
                
  20274634.96909 106544052.64109        48.300                                  
  83021279.29749        41.900    20274640.75849                                
                
  21520052.45305 115117810.51605        37.100    21520050.21905  21520053.80906
  89536036.52906        39.900    21520054.76606                                
                
  24168475.73402 127006182.55402        31.500                    24168486.82005
  98965880.72945        16.900    24168487.14845  24168488.27707  94842300.19907
        43.700  
  19399027.48409 103589748.52909        53.100    19399027.09409  19399030.27709
  80569817.86109        50.900    19399030.89809                                
                
  22478507.87508 120287039.87008        47.100    22478506.37908  22478512.23807
  93556598.30307        41.400    22478512.03907                                
                
  20222250.12509 106268719.24109        49.100                    20222259.62509
  82806790.10249        44.100    20222260.07049  20222258.31309  79356495.01009
        54.500  
  21450539.10209 112723374.18709        48.300                    21450548.30508
  87836422.66549        40.000    21450547.96549  21450547.43809  84176574.21409
        51.100  
  21743659.38308 115905953.53508        46.400    21743658.79307  21743667.20705
  90149096.84305        36.800    21743666.68405                                
                
  23885762.68806 125520608.95806        38.400                                  
  97808225.74046        21.300    23885769.78146                                
                
  24112388.82805 126711473.95905        36.100                                  
  98736250.95446        20.600    24112396.64846                                
                
 19  6  7  4  7 30.0000000  0 17G 7R20G18G 8G27R16G11R19G 9R 9G16R21  .000000000
                                G 1G30R10G22G28
  20228142.24209 106299837.97109        50.300                    20228148.40609
  82830905.54949        43.600    20228148.73049                                
                
  19563148.49208 104612976.04208        47.800    19563148.70708  19563154.34409
  81365668.40009        49.200    19563153.67209                                
                
  20389169.36709 107145836.88309        49.500                                  
  83490274.69649        42.100    20389176.34049                                
                
  22484772.71907 118158342.14607        44.600                    22484782.60907
  92071395.22949        34.400    22484781.85249  22484781.31609  88235082.34009
        48.400  
  25184425.37505 132345150.03205        36.800                    25184434.80503
 103125980.99645        16.900    25184433.83645  25184434.40606  98829050.85206
        38.400  
  21526862.21107 114992535.88707        42.800    21526861.53507  21526863.85206
  89438669.48506        38.200    21526866.25406                                
                
  20274935.25008 106545630.34008        47.900                                  
  83022508.67249        41.400    20274941.05149                                
                
  21523330.53905 115135344.63805        37.600    21523328.56605  21523333.18806
  89549674.18006        40.000    21523332.52306                                
                
  24170477.15602 127016700.70102        31.900                    24170487.73405
  98974076.70645        15.600    24170488.05945  24170489.77707  94850154.63707
        44.500  
  19397853.96909 103583480.31109        53.200    19397853.50409  19397856.14809
  80564942.57709        50.500    19397856.98009                                
                
  25325833.11701                        30.700                                  
                                                                                
                
  22475674.25808 120271877.28008        47.300    22475672.93008  22475679.39107
  93544805.18106        40.800    22475678.51206                                
                
  20221274.03909 106263588.04709        49.300                    20221283.25009
  82802791.76649        44.100    20221283.55149  20221281.88309  79352663.28209
        54.400  
  21448673.35209 112713569.71609        48.200                    21448682.34408
  87828782.81049        40.200    21448682.05549  21448681.80909  84169252.68709
        51.100  
  21740254.40608 115887806.63108        46.700    21740254.40208  21740261.49206
  90134982.58405        36.700    21740262.17605                                
                
  23884002.36706 125511357.80006        38.200                                  
  97801017.07146        21.100    23884008.99646                                
                
  24110576.68805 126701947.07905        36.300                                  
  98728827.38246        20.600    24110583.92246                                
                
 19  6  7  4  7 35.0000000  0 17G 7R20G18G 8G27R16G11R19G 9R 9G16R21  .000000000
                                G 1G30R10G22G28
  20228057.09409 106299390.48209        50.400                    20228063.46909
  82830556.85149        44.200    20228063.60949                                
                
  19563326.76608 104613930.99408        47.200    19563327.15608  19563333.10509
  81366411.13809        48.600    19563332.26209                                
                
  20389902.24209 107149688.60809        49.800                                  
  83493276.03849        42.000    20389909.31349                                
                
  22486834.21108 118169177.66208        45.300                    22486844.47307
  92079838.48448        33.800    22486843.96548  22486843.07409  88243173.79309
        48.600  
  25186931.60905 132358326.09405        36.600                    25186941.95704
 103136247.99345        16.900    25186941.20345  25186941.55105  98838890.10105
        36.900  
  21529429.43807 115006247.30607        43.100    21529428.30107  21529431.25806
  89449333.90905        37.900    21529433.28505                                
                
  20275238.32009 106547221.53709        48.200                                  
  83023748.57049        42.000    20275243.75049                                
                
  21526608.83605 115152883.15405        37.600    21526606.96105  21526610.84006
  89563315.24006        40.600    21526611.20706                                
                
  24172478.46902 127027216.51402        31.900                    24172489.19105
  98982270.83045        16.300    24172489.25445  24172491.40607  94858007.31807
        44.300  
  19396683.42209 103577227.91509        53.100    19396682.54309  19396685.61309
  80560079.59109        50.900    19396686.09009                                
                
  25327698.30502                        31.000                                  
                                                                                
                
  22472843.10208 120256726.14508        46.800    22472841.43008  22472847.47307
  93533020.97406        40.400    22472847.32806                                
                
  20220300.58609 106258473.80709        49.400                    20220310.10509
  82798806.64849        44.200    20220310.40249  20220308.62509  79348844.21209
        54.500  
  21446810.05509 112703778.07409        48.200                    21446819.13308
  87821152.96549        39.900    21446818.79349  21446818.58609  84161940.74809
        51.200  
  21736850.98408 115869663.25708        46.300    21736850.31608  21736858.94905
  90120871.08205        36.900    21736858.41005                                
                
  23882242.36706 125502107.92506        38.200                                  
  97793809.35146        20.900    23882249.00846                                
                
  24108763.11705 126692416.74705        35.500                                  
  98721401.18345        19.600    24108770.29745                                
                
